timestamp,segment_id,status,name,lat,lon
2025-06-17T10:58:42.005753,166.0,0,AV. DE LA PLATA HACIA AUSIAS MARCH,39.45584475548337,-0.3654706314265538
2025-06-17T10:58:42.005753,189.0,0,ACCESO DESDE A-3 A AV. DEL CID,39.46919623973966,-0.4182334761592123
2025-06-17T10:58:42.005753,459.0,0,VIA DE SERVEI D'ANTONIO FERRANDIS CAP A AUTOPISTA DEL SALER,39.4470633349177,-0.3661715041757855
2025-06-17T10:58:42.005753,404.0,0,MALILLA CAP A CENTRE CIUTAT,39.449467674314754,-0.3792896877235342
2025-06-17T10:58:42.005753,2.0,0,CLARIANO D´EIXIDA,39.4782757347188,-0.3514178017354239
2025-06-17T10:58:42.005753,90.0,0,TOMAS DE MONTAÑANA CAP A AV. DEL PORT,39.46293648191689,-0.3521612137442843
2025-06-17T10:58:42.005753,199.0,0,SERRERÍA HACIA BLASCO IBÁÑEZ,39.465406595904575,-0.3358936708231511
2025-06-17T10:58:42.005753,421.0,0,BLASCO IBAÑEZ A VIVERS (DES DE CLARIANO A AV. ARAGO),39.47586949839943,-0.3538972056392176
2025-06-17T10:58:42.005753,196.0,0,EUGENIA VIÑES (DE HISTORIADOR COLOMA A MEDITERRÁNEO),39.4689822300759,-0.3254869640570734
2025-06-17T10:58:42.005753,3.0,0,AV. CONSTITUCIO D'ENTRADA (DES DE CORONEL MONTESINOS),39.49324907628858,-0.3733179456917436
2025-06-17T10:58:42.005753,179.0,0,PASO INFERIOR CLARIANO,39.48169766976795,-0.3504452458967991
2025-06-17T10:58:42.005753,466.0,0,ACCES DES DE EDUARDO PRIMO YUFERA A CAMI DE LES MORERES,39.45210412975758,-0.3407400283436962
2025-06-17T10:58:42.005753,47.0,0,PASO INFERIOR GERMANIAS HACIA PLAZA ESPAÑA,39.46384536541438,-0.378586275873344
2025-06-17T10:58:42.005753,56.0,0,PERIODISTA AZZATI,39.46952242865396,-0.3777645568544135
2025-06-17T10:58:42.005753,27.0,0,MARQUES DEL TURIA CAP A GERMANIES,39.46701292935422,-0.3692154347035139
2025-06-17T10:58:42.005753,83.0,0,ARXIDUC CARLES CAP A TRES CREUS,39.462924307551,-0.3972661582815889
2025-06-17T10:58:42.005753,382.0,0,PASSEIG D'ALBEREDA (DES DE PONT EXPOSICIO A PONT DE LES FLORS),39.47264433635456,-0.3640823234098735
2025-06-17T10:58:42.005753,20.0,0,GIORGETA CAP A PERIS I VALERO,39.46000415854263,-0.3852093451557978
2025-06-17T10:58:42.005753,190.0,0,AUSIAS MARCH (DE V-31 A A. FERRANDIS),39.44187965860989,-0.3693281232927319
2025-06-17T10:58:42.005753,23.0,0,EDUARD BOSCA CAP A CARDENAL BENLLOCH,39.46556002818757,-0.3571509366493807
2025-06-17T10:58:42.005753,455.0,0,OEST (MERCAT CENTRAL),39.47102551984442,-0.3796014446856867
2025-06-17T10:58:42.005753,193.0,0,PASO INFERIOR PROFESOR LÓPEZ PIÑERO DE ENTRADA,39.45487404623732,-0.353853895633374
2025-06-17T10:58:42.005753,184.0,0,HNOS. MACHADO (DE V-21 A ALFAHUIR),39.48818230484527,-0.3534513334918205
2025-06-17T10:58:42.005753,74.0,0,MEDITERRANIA (DES DE PROGRES A E. VIÑES),39.46754845444436,-0.3278384950989337
2025-06-17T10:58:42.005753,67.0,0,TRES CREUS (DES DE TRES FORQUES A AV. DEL CID),39.46666688786543,-0.4055811729744648
2025-06-17T10:58:42.005753,45.0,0,MESTRE RODRIGO (DES DE GRAL. AVILES A TIRSO MOLINA),39.47984758145938,-0.3993787630241544
2025-06-17T10:58:42.005753,201.0,0,GENERAL AVILES (DE PIO XII A MESTRE RODRIGO),39.48460789214968,-0.3991087551987221
2025-06-17T10:58:42.005753,87.0,0,TOMAS DE MONTAÑANA CAP A PONT DE MONTEOLIVET,39.463009403859736,-0.3524298883120921
2025-06-17T10:58:42.005753,40.0,0,GUILLEM DE CASTRO,39.473552694509365,-0.3832604257732642
2025-06-17T10:58:42.005753,129.0,0,GERMANIES CAP A MARQUES DEL TURIA,39.46447610612035,-0.3745169072076328
2025-06-17T10:58:42.005753,54.0,0,FRANCIA (DE MENORCA A T. DE MONTAÑANA),39.45963468463744,-0.3484286211248869
2025-06-17T10:58:42.005753,46.0,0,MESTRE RODRIGO (DES DE TIRSO DE MOLINA A GRAL. AVILES),39.47984415696816,-0.3991210251862677
2025-06-17T10:58:42.005753,249.0,0,MAESTRO RODRIGO (DE CAMP DE TURIA A GRAL. AVILÉS),39.4875544697754,-0.4050504740711234
2025-06-17T10:58:42.005753,145.0,0,PASO ELEVADO HACIA PERIS Y VALERO,39.455922578944985,-0.3798342944363131
2025-06-17T10:58:42.005753,132.0,0,VÍA DE SERVICIO DEL PASO INFERIOR A. FERRANDIS (DE CRA. MALILLA A A. MARCH),39.44499272977041,-0.3714292077827567
2025-06-17T10:58:42.005753,230.0,0,JUAN VERDEGUER (DE ING. MANUEL SOTO A MENORCA),39.45898110452792,-0.3374971954303833
2025-06-17T10:58:42.005753,81.0,0,PINTOR SOROLLA,39.47113811109414,-0.3725394625228076
2025-06-17T10:58:42.005753,80.0,0,AUSIAS MARCH HACIA PERIS Y VALERO,39.45168464187443,-0.3719770061268647
2025-06-17T10:58:42.005753,197.0,0,PASEO DE LA ALAMEDA (DE PUENTE MONTEOLIVETE A MENORCA),39.45797330808955,-0.3507639800815976
2025-06-17T10:58:42.005753,169.0,0,NARANJOS (DE RAMON LLULL A LUIS PEIXO),39.47802109451111,-0.3394100479232136
2025-06-17T10:58:42.005753,214.0,0,JUAN XXIII HACIA HNOS. MACHADO,39.49394437936061,-0.3833630854812266
2025-06-17T10:58:42.005753,248.0,0,EUGENIA VIÑES (DE MARCOS SOPENA A MEDITERRÁNEO),39.46538510801776,-0.3247916652780374
2025-06-17T10:58:42.005753,222.0,0,CORTES VALENCIANAS (DE CAMP DE TURIA A LA SAFOR),39.492435623641725,-0.4009840911786421
2025-06-17T10:58:42.005753,227.0,0,MARQUÉS DEL TÚRIA HACIA PUENTE DE ARAGÓN,39.46683889481911,-0.3688257950989793
2025-06-17T10:58:42.005753,187.0,0,CORTES VALENCIANAS (DE CV-35 A CAMP DE TURIA),39.49676623680192,-0.4040724496780322
2025-06-17T10:58:42.005753,259.0,0,GENERAL ELIO HACIA PUENTE DEL REAL,39.47825513798841,-0.3669972753256481
2025-06-17T10:58:42.005753,78.0,0,ANGEL GUIMERÁ (DE F. CATÓLICO A P. GALDÓS),39.4696891428017,-0.3885045338890646
2025-06-17T10:58:42.005753,43.0,0,BLASCO IBAÑEZ (DE CATALUÑA A VIVEROS),39.47817857523362,-0.3609765764336744
2025-06-17T10:58:42.005753,282.0,0,CONSTITUCIÓN (DE HERMANOS MACHADO A TAVERNES BLANQUES),39.49955170913957,-0.3700778715218118
2025-06-17T10:58:42.005753,239.0,0,CAMPANAR (DE TIRSO DE MOLINA A PÍO XII),39.47928834615428,-0.393913840353462
2025-06-17T10:58:42.005753,139.0,0,PASCUAL Y GENÍS,39.46915689263018,-0.3738730771356714
2025-06-17T10:58:42.005753,260.0,0,PUENTE DEL REAL HACIA PLAZA TETUÁN,39.47640935229757,-0.3688531403494167
2025-06-17T10:58:42.005753,84.0,0,ALCALDE REIG HACIA PERIS Y VALERO,39.46094266852524,-0.3595039448369694
2025-06-17T10:58:42.005753,247.0,0,DOCTOR LLUCH HACIA NARANJOS,39.46535657269016,-0.3286279656606516
2025-06-17T10:58:42.005753,280.0,0,PASO INFERIOR PIO XII DE SALIDA,39.48590697210074,-0.3960553528942918
2025-06-17T10:58:42.005753,53.0,0,ROGER DE LAURIA,39.46914675125608,-0.3739048008217518
2025-06-17T10:58:42.005753,217.0,0,PASO INFERIOR HNOS. MACHADO HACIA JUAN XXIII,39.49807436653983,-0.3701332262175368
2025-06-17T10:58:42.005753,213.0,0,ALFAHUIR HACIA PRIMADO REIG,39.49114958329602,-0.3633408722026838
2025-06-17T10:58:42.005753,131.0,0,RUZAFA DE PLAZA DR. LANDETE A GERMANÍAS,39.46396371881648,-0.3728232379375897
2025-06-17T10:58:42.005753,360.0,0,SAGUNTO (DE RUAYA A CONSTITUCIÓN),39.488601993338925,-0.3747894446638248
2025-06-17T10:58:42.005753,362.0,0,EDUARDO PRIMO YÚFERA HACIA NAZARET,39.451898340390336,-0.3466988978657531
2025-06-17T10:58:42.005753,364.0,0,REINO DE VALENCIA (DE GERMANÍAS A PERIS Y VALERO),39.46271062362656,-0.3635732629472894
2025-06-17T10:58:42.005753,344.0,0,PÉREZ GALDÓS HACIA PUENTE CAMPANAR,39.46365697758,-0.3875757865768054
2025-06-17T10:58:42.005753,338.0,0,CORTES VALENCIANAS (DE CAMP DE TURIA A CV-35),39.49692515677082,-0.4039253105757624
2025-06-17T10:58:42.005753,355.0,0,AV. DEL CID (DE NUEVE DE OCTUBRE A A-3),39.4697314756599,-0.4122632061041307
2025-06-17T10:58:42.005753,307.0,0,PASO INFERIOR PÍO XII DE ENTRADA,39.48580138312249,-0.396231191581797
2025-06-17T10:58:42.005753,364.0,0,REINO DE VALENCIA (DE GERMANÍAS A PERIS Y VALERO),39.46387445702416,-0.3689917101287021
2025-06-17T10:58:42.005753,305.0,0,PUENTE ASTILLEROS HACIA ING. MANUEL SOTO,39.45324749798648,-0.331553321668773
2025-06-17T10:58:42.005753,293.0,0,PUENTE DE LA EXPOSICIÓN HACIA ALAMEDA,39.473138722444816,-0.3658937621029786
2025-06-17T10:58:42.005753,352.0,0,PESET ALEIXANDRE (DE JUAN XXIII A PRIMADO REIG),39.49076205877712,-0.379595824966712
2025-06-17T10:58:42.005753,339.0,0,A-3 SENTIDO SALIDA,39.4694214563251,-0.4182708140051018
2025-06-17T10:58:42.005753,287.0,0,PUENTE DE LAS ARTES HACIA MENÉNDEZ PIDAL,39.481099101733214,-0.3834471488392138
2025-06-17T10:58:42.005753,372.0,0,CAMP DE TURIA (DE M. RODRIGO A CORTES VALENCIANAS),39.49320232432847,-0.4053204644681352
2025-06-17T10:58:42.005753,267.0,0,MARCOS SOPENA (DE EUGENIA VIÑES A PLAZA ARMADA ESPAÑOLA),39.46321287423368,-0.3269941170291252
2025-06-17T10:58:42.005753,374.0,0,LA SAFOR (DE CORTES VALENCIANAS A M. RODRIGO),39.48915379266813,-0.4023892882222454
2025-06-17T10:58:42.005753,345.0,0,NUEVE DE OCTUBRE HACIA PÍO BAROJA,39.47153380924273,-0.4052031513721389
2025-06-17T10:58:42.005753,288.0,0,PUENTE DEL REAL HACIA VIVEROS,39.47629668387465,-0.3687494899198133
2025-06-17T10:58:42.005753,344.0,0,PÉREZ GALDÓS HACIA PUENTE CAMPANAR,39.47316027804814,-0.3943410904507086
2025-06-17T10:58:42.005753,292.0,0,VALLE DE LA BALLESTERA (DE MTRO. RODRIGO A PÍO XII),39.48000689709962,-0.3958586768165234
2025-06-17T10:58:42.005753,385.0,0,VÍA DE SERVICIO PASO INFERIOR DE GRAL. AVILÉS A PESET ALEIXANDRE,39.48915699494085,-0.3863626246925892
2025-06-17T10:58:42.005753,381.0,0,GENERAL AVILÉS (DE M. RODRIGO A PÍO BAROJA),39.48231832701224,-0.4043683304524538
2025-06-17T10:58:42.005753,309.0,0,PASO INFERIOR PEREZ GALDOS HACIA GIORGETA,39.4679787584152,-0.3908519237053131
2025-06-17T10:58:42.005753,368.0,0,FRANCIA (DE PUENTE DEL REINO A TOMÁS DE MONTAÑANA),39.46051160160744,-0.3555657521183961
2025-06-17T10:58:42.005753,266.0,0,MARCOS SOPENA (DE PLAZA ARMADA ESPAÑOLA A EUGENIA VIÑES),39.46304369782034,-0.3269736975961338
2025-06-17T10:58:42.005753,296.0,0,PUENTE DE CAMPANAR HACIA PÉREZ GALDÓS,39.47572807415988,-0.3964437445049349
2025-06-17T10:58:42.005753,277.0,0,PASO INFERIOR CATALUÑA DE SALIDA,39.480996222672026,-0.3518736145349449
2025-06-17T10:58:42.005753,274.0,0,PUENTE DEL ASSUT DE L'OR HACIA MENORCA,39.45469761327399,-0.3495825540040758
2025-06-17T10:58:42.005753,290.0,0,PUENTE REINO DE VALENCIA HACIA FRANCIA,39.46170929899682,-0.3589584618886647
2025-06-17T10:58:42.005753,330.0,0,PASEO DE LA ALAMEDA (DE PUENTE DE LA EXPOSICION A LLANO DEL REAL),39.47520516414651,-0.3658496932467651
2025-06-17T10:58:42.005753,331.0,0,PASEO DE LA ALAMEDA (DE LLANO DEL REAL A PUENTE DE LA EXPOSICION),39.4751021462844,-0.3660445328061775
2025-06-17T10:58:42.005753,334.0,0,JOAQUÍN BALLESTER HACIA PADRE FERRIS,39.48304500388587,-0.3893257443426723
2025-06-17T10:58:42.005753,332.0,0,PASEO DE LA ALAMEDA (DE PUENTE DE LA EXPOSICION A ZARAGOZA),39.47043182723874,-0.3622935918953706
2025-06-17T10:58:42.005753,297.0,0,PUENTE DE CAMPANAR HACIA MTRO RODRIGO,39.475796056763166,-0.3962938578878808
2025-06-17T10:58:42.005753,276.0,0,PASO INFERIOR CATALUÑA DE ENTRADA,39.48106834028241,-0.3520383004423561
2025-06-17T10:58:42.005753,317.0,0,PASO INFERIOR TIRSO DE MOLINA - MANUEL DE FALLA,39.47660979036577,-0.3966376431551479
2025-06-17T10:58:42.005753,278.0,0,PIO XII (DE CAMPANAR A TIRSO DE MOLINA),39.480021747178974,-0.3920709048556676
2025-06-17T10:58:42.005753,337.0,0,OEST (SANT AGUSTI),39.47102502955703,-0.3797662852296538
2025-06-17T10:58:42.005753,377.0,0,TRES CRUCES (DE TRES FORQUES A ARCHIDUQUE CARLOS),39.460809737869,-0.4043707349120037
2025-06-17T10:58:42.005753,,0,,,
2025-06-17T10:58:42.005753,394.0,0,AV. DEL CID (DE A-3 A NUEVE DE OCTUBRE),39.46952237588906,-0.4121275303068494
2025-06-17T10:58:42.005753,434.0,0,CAMP DEL TURIA (DE CORTES VALENCIANAS A NICASIO BENLLOCH),39.49511784939858,-0.4009174816550205
2025-06-17T10:58:42.005753,253.0,0,ANTONIO FERRANDIS HACIA AUSIAS MARCH,39.45064139274389,-0.3585718451850702
2025-06-17T10:58:42.005753,435.0,0,CAMP DEL TURIA (DE NICASIO BENLLOCH A CORTES VALENCIANAS),39.4953845576506,-0.4011085098233489
2025-06-17T10:58:42.005753,415.0,0,VÍA DE SERVICIO DE HNOS. MACHADO HACIA ALFAHUIR,39.49786997709089,-0.3702672254981869
2025-06-17T10:58:42.005753,69.0,0,SAN JOSE DE CALASANZ - PINTOR BENEDITO,39.4662319389413,-0.3857343272367827
2025-06-17T10:58:42.005753,408.0,0,CARTEROS HACIA TOMAS SALA,39.45036061867714,-0.3891899863018349
2025-06-17T10:58:42.005753,433.0,0,VÍA DE SERVICIO DE GENERAL AVILÉS A NICASIO BENLLOCH,39.48759563881619,-0.3915459481249286
2025-06-17T10:58:42.005753,424.0,0,BLASCO IBAÑEZ (DE M.CANDELA A SERRERÍA),39.47172603922722,-0.3413667880726616
2025-06-17T10:58:42.005753,208.0,0,MANUEL DE FALLA,39.47520469558,-0.4026120831264714
2025-06-17T10:58:42.005753,414.0,0,VÍA DE SERVICIO DE HNOS. MACHADO HACIA CNO. MONCADA,39.4981878678564,-0.3700769218897111
2025-06-17T10:58:42.005753,448.0,0,PL. SAN AGUSTÍN,39.46858856663464,-0.3794510081519771
2025-06-17T10:58:42.005753,388.0,0,VÍA DE SERVICIO PASO INFERIOR DE PESET ALEIXANDRE A PRIMADO REIG,39.49125431805799,-0.3741713818120482
2025-06-17T10:58:42.005753,407.0,0,TOMAS SALA (DE SAN VICENTE A CARTEROS),39.44689519592839,-0.3879872696532171
2025-06-17T10:58:42.005753,416.0,0,CONSTITUCIÓN (DE TAVERNES BLANQUES A HNOS.MACHADO),39.49959023338232,-0.3701927313923045
2025-06-17T10:58:42.005753,373.0,0,LA SAFOR (DE M. RODRIGO A CORTES VALENCIANAS),39.48887829368749,-0.4021774965308397
2025-06-17T10:58:42.005753,402.0,0,EMILIO BARÓ,39.48821298401028,-0.3606524969398358
2025-06-17T10:58:42.005753,100.0,3,ALICANTE (DE XÀTIVA A GERMANÍAS),39.465307009307175,-0.3772542485482671
2025-06-17T10:58:42.005753,391.0,0,AV. DEL CID (DE LINARES A NUEVE DE OCTUBRE),39.46882836206088,-0.3994732742292723
2025-06-17T10:58:42.005753,326.0,0,JOAQUIN BALLESTER HACIA PÍO XII,39.48335783575127,-0.3889633146900485
2025-06-17T10:58:42.005753,445.0,0,AV. MENÉNDEZ PIDAL (DE PUENTE DE ADEMUZ A PUENTE DE LAS ARTES),39.480072968485736,-0.3874661255916911
2025-06-17T10:58:42.005753,426.0,0,CAMPANAR (DE PESET ALEIXANDRE A PÍO XII),39.48493959965028,-0.3913579628115289
2025-06-17T10:58:42.005753,392.0,0,PASO INFERIOR AV. DEL CID HACIA A-3,39.46982719869189,-0.4059249183556874
2025-06-17T10:58:42.005753,255.0,0,AV. DEL LEVANTE (DE ECUADOR A JUAN XXIII),39.49577512415503,-0.3887909741902337
2025-06-17T10:58:42.005753,99.0,0,JACINTO BENAVENTE HACIA ALCALDE REIG,39.466023957749336,-0.3625893962577639
2025-06-17T10:58:42.005753,328.0,0,INGENIERO FAUSTO ELIO HACIA NARANJOS,39.48049733595654,-0.332649250561997
2025-06-17T10:58:42.005753,37.0,0,RAMÓN Y CAJAL HACIA FDO. EL CATÓLICO,39.46769089975571,-0.3828984190279645
2025-06-17T10:58:42.005753,175.0,0,FDO. ABRIL MARTORELL (DE AUSIAS MARCH A MALILLA),39.445305697169744,-0.3746190576391136
2025-06-17T10:58:42.005753,440.0,0,MARQUÉS DE SOTELO (DE XÀTIVA A AYUNTAMIENTO),39.46838918596895,-0.3768603635336205
2025-06-17T10:58:42.005753,324.0,0,MARINO BLAS DE LEZO - LUIS PEIXÓ HACIA NARANJOS,39.47318865692153,-0.3338732251124759
2025-06-17T10:58:42.005753,76.0,0,TRES CREUS (DES DE AV. DEL CID A TRES FORQUES),39.46670592585357,-0.40633058322249
2025-06-17T10:58:42.005753,185.0,0,HNOS. MACHADO (DE ALFAHUIR A V-21),39.48808070406089,-0.3536228442964958
2025-06-17T10:58:42.005753,86.0,0,M. CANDELA CAP A AV. DEL PORT,39.4696488979705,-0.3497410849052459
2025-06-17T10:58:42.005753,98.0,0,PLAZA ALFONSO EL MAGNÁNIMO - PALACIO DE JUSTICIA,39.47180308184628,-0.370009133276076
2025-06-17T10:58:42.005753,152.0,0,BLANQUERÍAS (DESDE SALIDA DEL PASO INFERIOR A TORRES DE SERRANOS),39.48032808386881,-0.3775989469629154
2025-06-17T10:58:42.005753,17.0,0,PEREZ GALDOS CAP A GIORGETA,39.473087378085566,-0.3945154450305949
2025-06-17T10:58:42.005753,262.0,0,AV. DELS TARONGERS (DES DE LLUIS PEIXO A DR. LLUCH),39.47541809912133,-0.3303779557924317
2025-06-17T10:58:42.005753,456.0,0,JAIME BELTRAN - URUGUAY (CAP A GIORGETA),39.45797971069469,-0.3875136710183217
2025-06-17T10:58:42.005753,25.0,0,CARDENAL BENLLOCH HACIA BLASCO IBAÑEZ,39.47113007783519,-0.3544233750140954
2025-06-17T10:58:42.005753,474.0,0,COMTE LUMIARES (CAP A AV. CONSTITUCIO),39.496298550798365,-0.3720959731663344
2025-06-17T10:58:42.005753,384.0,0,PASSEIG D'ALBEREDA (DES DE PONT DE LES FLORS A PONT EXPOSICIO),39.47271898157035,-0.3638626267950421
2025-06-17T10:58:42.005753,48.0,0,GENERAL AVILÉS (DE MTRO. RODRIGO A PÍO XII),39.48450180935379,-0.3987915446608716
2025-06-17T10:58:42.005753,72.0,0,NOU D'OCTUBRE CAP A AV. DEL CID,39.47155428756677,-0.4055675574990461
2025-06-17T10:58:42.005753,28.0,0,CAMI DE MONTCADA (DES DE POBLE NOU A GERMANS MACHADO),39.5002765358223,-0.3812624125520626
2025-06-17T10:58:42.005753,91.0,0,M. CANDELA CAP A BLASCO IBAÑEZ,39.46957839314975,-0.3494830311993885
2025-06-17T10:58:42.005753,194.0,0,INGENIERO MANUEL SOTO HACIA PUENTE DE ASTILLEROS,39.45691035787034,-0.3313783008387256
2025-06-17T10:58:42.005753,462.0,0,CAMI DE LES MORERES CAP A CARRERA DEL RIU,39.4520891383572,-0.3382016547584431
2025-06-17T10:58:42.005753,420.0,0,BLASCO IBAÑEZ (DES DE RAMON LLULL A CLARIANO),39.47476900484969,-0.3501296714376762
2025-06-17T10:58:42.005753,88.0,0,GERMANS MARISTES CAP A AUSIAS MARCH,39.45228102225633,-0.3662925622492758
2025-06-17T10:58:42.005753,89.0,0,GERMANS MARISTES CAP A PONT DE MONTEOLIVET,39.45212425996457,-0.3661854292554278
2025-06-17T10:58:42.005753,463.0,0,CAMI CANAL D'EIXIDA,39.451224433666624,-0.3352885564004821
2025-06-17T10:58:42.005753,71.0,0,JESUS,39.46471113072391,-0.3847164550511613
2025-06-17T10:58:42.005753,226.0,0,PAS INFERIOR GERMANIES CAP A MARQUES DEL TURIA,39.46363447407997,-0.3784816939565296
2025-06-17T10:58:42.005753,15.0,0,PESET ALEIXANDRE CAP A GRAL. AVILES,39.49090780797097,-0.3796593905451595
2025-06-17T10:58:42.005753,22.0,0,PERIS I VALERO CAP A AUSIAS MARCH,39.46015865201508,-0.3683299704830048
2025-06-17T10:58:42.005753,148.0,0,PRIMAT REIG (DES DE BILBAO A CAVANILLES),39.4872957644926,-0.3676029911914943
2025-06-17T10:58:42.005753,18.0,0,GIORGETA CAP A PEREZ GALDOS,39.46020324461217,-0.3851281539281749
2025-06-17T10:58:42.005753,32.0,0,RAMÓN Y CAJAL HACIA PLAZA ESPAÑA,39.46734459544216,-0.3830985880655649
2025-06-17T10:58:42.005753,12.0,0,CAVANILLES,39.481953311371285,-0.365175252309093
2025-06-17T10:58:42.005753,8.0,0,SANT VICENT (DES DE GIORGETA A TOMAS SALA),39.4520865758401,-0.3848707077564342
2025-06-17T10:58:42.005753,75.0,0,PONT DE LA TRINITAT,39.478987564606655,-0.3727166397618602
2025-06-17T10:58:42.005753,31.0,0,CARDENAL BENLLOCH CAP A EDUARD BOSCA,39.4711826680422,-0.354593824664203
2025-06-17T10:58:42.005753,150.0,0,PRIMADO REIG (DE CATALUÑA A EMILIO BARÓ),39.48122239683984,-0.3591387128407713
2025-06-17T10:58:42.005753,162.0,0,PASO INFERIOR DE PESET ALEIXANDRE HACIA P. REIG,39.49136059681516,-0.3741462437311332
2025-06-17T10:58:42.005753,33.0,0,CAMINO DE MONCADA (DE HNOS. MACHADO A POBLE NOU),39.50025436358964,-0.381015723412841
2025-06-17T10:58:42.005753,73.0,0,MEDITERRÁNEO (DE E.VIÑES A PROGRESO),39.467661674315146,-0.3278385971868722
2025-06-17T10:58:42.005753,94.0,0,TRES FORQUES (DE PÉREZ GALDÓS A TRES CRUCES),39.46398057803403,-0.3968197832857982
2025-06-17T10:58:42.005753,202.0,0,GENERAL AVILÉS (DE PÍO BAROJA A MTRO. RODRIGO),39.482149106135566,-0.4043126880830821
2025-06-17T10:58:42.005753,35.0,0,MENÉNDEZ PIDAL,39.47969970306072,-0.3888641582347716
2025-06-17T10:58:42.005753,231.0,0,LUIS PEIXÓ - BLAS DE LEZO HACIA BLASCO IBAÑEZ,39.47324863614024,-0.3340628928800406
2025-06-17T10:58:42.005753,281.0,0,CORTES VALENCIANAS (DE LA SAFOR A CAMP DE TURIA),39.49249268622793,-0.400828746173032
2025-06-17T10:58:42.005753,60.0,0,MATÍAS PERELLÓ - CENTELLES,39.46097641659705,-0.3689944173408517
2025-06-17T10:58:42.005753,10.0,0,INSTITUTO OBRERO HACIA PROF. LÓPEZ PIÑERO,39.455217283595815,-0.3587598525693126
2025-06-17T10:58:42.005753,312.0,0,PASO INFERIOR BLANQUERÍAS,39.48050604980939,-0.3825243441712401
2025-06-17T10:58:42.005753,229.0,0,SERRERÍA HACIA AV. DEL PUERTO,39.46544050988979,-0.3360976495976194
2025-06-17T10:58:42.005753,237.0,0,PUENTE MONTEOLIVETE HACIA INST. OBRERO,39.45806521563285,-0.3546116399051968
2025-06-17T10:58:42.005753,263.0,0,NARANJOS (DE DR. LLUCH A LUIS PEIXO),39.47562391565186,-0.3303450840519455
2025-06-17T10:58:42.005753,5.0,0,ISLAS CANARIAS (DE MANUEL CANDELA A E.BOSCÁ),39.46591570779275,-0.354106983595753
2025-06-17T10:58:42.005753,6.0,0,SAN VICENTE (DE GIORGETA A PLAZA ESPAÑA),39.46155308089947,-0.3825187124490699
2025-06-17T10:58:42.005753,219.0,0,CONSTITUCIÓN (DE PRIMADO REIG A HNOS. MACHADO),39.4949272398524,-0.3719424501853058
2025-06-17T10:58:42.005753,106.0,0,PÍO BAROJA (DE MANUEL DE FALLA A GENERAL AVILÉS),39.47753610928306,-0.4063526118905359
2025-06-17T10:58:42.005753,51.0,0,SAN VICENTE (DE SAN AGUSTIN A MªCRISTINA),39.47049109929769,-0.3781126804996607
2025-06-17T10:58:42.005753,211.0,0,HNOS. MACHADO HACIA V-21 (DE JUAN XXIII A ALFAHUIR),39.49885414210864,-0.3790485711073229
2025-06-17T10:58:42.005753,39.0,0,PLAZA AMÉRICA HACIA NAVARRO REVERTER,39.46972984994812,-0.3645844412809193
2025-06-17T10:58:42.005753,127.0,0,GENERAL PALANCA,39.47298264684471,-0.3690544536203106
2025-06-17T10:58:42.005753,128.0,0,VÍA DE SERVICIO DE LA ALAMEDA (DE A.PALACIO VALDÉS A LLANO DEL REAL),39.475431390122935,-0.3654384718486377
2025-06-17T10:58:42.005753,9.0,0,INSTITUTO OBRERO HACIA AUSIAS MARCH,39.45535179169036,-0.3588443923912916
2025-06-17T10:58:42.005753,210.0,0,CAMINO MONCADA (DE HNOS. MACHADO A PESET ALEIXANDRE),39.49469246801522,-0.3803315511096723
2025-06-17T10:58:42.005753,224.0,0,AV. DEL LEVANTE (DE JUAN XXIII A ECUADOR),39.49600701228911,-0.388990752662194
2025-06-17T10:58:42.005753,192.0,0,PASO INFERIOR PROFESOR LÓPEZ PIÑERO DE SALIDA,39.45450938502522,-0.3537327913242484
2025-06-17T10:58:42.005753,246.0,0,PASEO DE LA ALAMEDA (DE MENORCA A T. DE MONTAÑANA),39.45810232395041,-0.3506473710926548
2025-06-17T10:58:42.005753,212.0,0,PASO INFERIOR HNOS. MACHADO HACIA ALFAHUIR,39.49798573460413,-0.3702102730991738
2025-06-17T10:58:42.005753,42.0,0,PLAZA DE TETUÁN,39.4745327720676,-0.3697014979876845
2025-06-17T10:58:42.005753,228.0,0,NARANJOS (DE LUIS PEIXÓ A V-21),39.47908125889863,-0.3420016398693832
2025-06-17T10:58:42.005753,174.0,0,PLAZA AMERICA HACIA MARQUÉS DEL TURIA,39.46969738552812,-0.3649160859247743
2025-06-17T10:58:42.005753,240.0,0,CAMPANAR (DE PÍO XII A TIRSO DE MOLINA),39.47928470780767,-0.394035035428453
2025-06-17T10:58:42.005753,133.0,0,MURILLO (DE MORO ZEIT A GUILLEM DE CASTRO),39.47530031628075,-0.3823748493308898
2025-06-17T10:58:42.005753,370.0,0,PASEO DE LA ALAMEDA (DE PUENTE DEL REINO A E. BOSCÁ),39.46264281388426,-0.357497969167262
2025-06-17T10:58:42.005753,347.0,0,VÍA DE SERVICIO DE AV. DEL CID (DE MISERICORDIA A TRES CRUCES),39.46965503615043,-0.4082987874234031
2025-06-17T10:58:42.005753,363.0,0,BURJASOT (DE LLANO DE ZAIDÍA A PESET ALEIXANDRE),39.48547522744831,-0.3857089358942444
2025-06-17T10:58:42.005753,275.0,0,PUENTE DEL ASSUT DE L'OR HACIA ANTONIO FERRANDIS,39.45485442631336,-0.3497590212396274
2025-06-17T10:58:42.005753,299.0,0,PUENTE DE ARAGÓN HACIA MARQUÉS DEL TURIA,39.468937292098005,-0.362680064031966
2025-06-17T10:58:42.005753,366.0,0,REINO DE VALENCIA (DE PERIS Y VALERO A MARQUÉS DEL TURIA),39.46401359624874,-0.3686904221817236
2025-06-17T10:58:42.005753,303.0,0,PUENTE MONTEOLIVETE HACIA TOMÁS DE MONTAÑANA,39.45793834004967,-0.3543789195569941
2025-06-17T10:58:42.005753,333.0,0,PUENTE DE MADERA,39.47975413611472,-0.3742414102528277
2025-06-17T10:58:42.005753,367.0,0,REINO DE VALENCIA (DE ALCALDE REIG A PERIS Y VALERO),39.46241515611082,-0.3614238470412221
2025-06-17T10:58:42.005753,244.0,0,J. J. DOMINE HACIA PLAZA ARMADA ESPAÑOLA,39.461536487769465,-0.3310424232744407
2025-06-17T10:58:42.005753,286.0,0,PASO INFERIOR Cº MONCADA DE ENTRADA,39.49856053333255,-0.3813507697239426
2025-06-17T10:58:42.005753,300.0,0,PUENTE DE ARAGÓN HACIA ARAGÓN,39.46877300256344,-0.3626226627228631
2025-06-17T10:58:42.005753,320.0,0,CNO. NUEVO DE PICAÑA HACIA CV-36,39.45603702776044,-0.4048984497125589
2025-06-17T10:58:42.005753,242.0,0,PÍO BAROJA (DE GENERAL AVILÉS A LA SAFOR),39.4843975124141,-0.4059449445561893
2025-06-17T10:58:42.005753,302.0,0,PUENTE DEL ÁNGEL CUSTODIO HACIA E. BOSCÁ?,39.46333248327524,-0.3597921612460537
2025-06-17T10:58:42.005753,329.0,0,PASEO DE LA ALAMEDA (DE PLAZA ZARAGOZA A PUENTE DE LAS FLORES),39.47049233886038,-0.362062196139134
2025-06-17T10:58:42.005753,291.0,0,VALLE DE LA BALLESTERA (DE PÍO BAROJA A MTRO. RODRIGO),39.478430874586806,-0.4024150937620595
2025-06-17T10:58:42.005753,378.0,0,PUERTO (DE PLAZA ZARAGOZA A EDUARDO BOSCÁ),39.46760684679235,-0.3584109650163375
2025-06-17T10:58:42.005753,306.0,0,PASO INFERIOR Cº MONCADA DE SALIDA,39.49856058358536,-0.3812334861821671
2025-06-17T10:58:42.005753,346.0,0,PUENTE DE LAS GLORIAS VALENCIANAS HACIA PÍO XII,39.47816966743624,-0.3905015846325826
2025-06-17T10:58:42.005753,284.0,0,VÍA DE SERVICIO DE V-21 A HNOS. MACHADO,39.48281925224617,-0.3499382492252439
2025-06-17T10:58:42.005753,319.0,0,AUTOPISTA DEL SALER LATERAL DE ENTRADA,39.45186884182124,-0.3499863168713222
2025-06-17T10:58:42.005753,310.0,0,PASO INFERIOR GUILLEM DE CASTRO - ANGEL GUIMERA,39.46998681858699,-0.3834979133675545
2025-06-17T10:58:42.005753,376.0,0,TRES CRUCES (DE ARCHIDUQUE CARLOS A TRES FORQUES),39.460910164194125,-0.4040614801418126
2025-06-17T10:58:42.005753,343.0,0,CV-36 SENTIDO SALIDA,39.452186716004974,-0.4099427388451975
2025-06-17T10:58:42.005753,294.0,0,PUENTE NUEVE DE OCTUBRE HACIA AV. DEL CID,39.47384123490917,-0.4059728284741708
2025-06-17T10:58:42.005753,366.0,0,REINO DE VALENCIA (DE PERIS Y VALERO A MARQUÉS DEL TURIA),39.46284326028832,-0.3633024560258012
2025-06-17T10:58:42.005753,375.0,0,VALLE DE LA BALLESTERA (DE PÍO XII A M. RODRIGO),39.480166092259495,-0.3959163153417225
2025-06-17T10:58:42.005753,379.0,0,PUERTO (DE EDUARDO BOSCÁ A M. CANDELA),39.46629135620313,-0.3539030936853039
2025-06-17T10:58:42.005753,,0,,,
2025-06-17T10:58:42.005753,429.0,0,MARGINAL DERECHA POR SUPERFICIE (DE FDO. CATÓLICO A PTE DE SAN JOSÉ),39.47931270436835,-0.3850631527248939
2025-06-17T10:58:42.005753,413.0,0,FDO. ABRIL MARTORELL (DE MALILLA A AUSIAS MARCH),39.4451289829324,-0.3766919771898713
2025-06-17T10:58:42.005753,439.0,0,MARQUÉS DE SOTELO (DE AYUNTAMIENTO A XÀTIVA),39.46845858997136,-0.3770431737875035
2025-06-17T10:58:42.005753,62.0,0,NAVARRO REVERTER,39.47119420394635,-0.366783302527304
2025-06-17T10:58:42.005753,181.0,0,TOMAS SALA (DE CARTEROS A SAN VICENTE),39.4467647137248,-0.3880438719820765
2025-06-17T10:58:42.005753,361.0,0,GENERAL ELIO HACIA BLASCO IBAÑEZ,39.47812430443116,-0.3668350697298716
2025-06-17T10:58:42.005753,396.0,0,CONSTITUCIÓN (DESDE REUS HASTA LLANO DE ZAIDÍA),39.48437560763236,-0.3787248453420189
2025-06-17T10:58:42.005753,409.0,0,CARTEROS HACIA CENTRO CIUDAD,39.45032712740743,-0.3890203058356016
2025-06-17T10:58:42.005753,178.0,0,PÍO BAROJA (DE GRAL. AVILÉS A MANUEL DE FALLA),39.47750695112613,-0.4067807845081923
2025-06-17T10:58:42.005753,431.0,0,VÍA DE SERVICIO DE CORTES VALENCIANAS A GRAL. AVILÉS,39.48732737567816,-0.3975306316029708
2025-06-17T10:58:42.005753,390.0,0,PASEO PECHINA (DE PÉREZ GALDÓS A PUENTE DE LAS GLORIAS VALENCIANAS),39.47626046381694,-0.3930551309870405
2025-06-17T10:58:42.005753,400.0,0,PÍO BAROJA (DE LA SAFOR A GRAL. AVILÉS),39.48449046182487,-0.4064106657167105
2025-06-17T10:58:42.005753,387.0,0,VÍA DE SERVICIO PASO INFERIOR DE PRIMADO REIG A PESET ALEIXANDRE,39.49157035262865,-0.3740825068238083
2025-06-17T10:58:42.005753,425.0,0,CAMPANAR (DE PÍO XII A PESET ALEIXANDRE),39.48491726275936,-0.3911664360417852
2025-06-17T10:58:42.005753,405.0,0,MALILLA HACIA FDO. ABRIL MARTORELL,39.44951283939736,-0.3795038174482866
2025-06-17T10:58:42.005753,176.0,0,FDO. ABRIL MARTORELL (DE SAN VICENTE A CRA. MALILLA),39.44576653799489,-0.3832474462230629
2025-06-17T10:58:42.005753,97.0,0,POETA QUEROL,39.47163488155354,-0.3742871583535577
2025-06-17T10:58:42.005753,264.0,0,REINA,39.46537586206394,-0.3291408457288411
2025-06-17T10:58:42.005753,444.0,0,VÍA DE SERVICIO PASO INFERIOR DE PÉREZ GALDÓS (DE CUENCA A ÁNGEL GUIMERÁ),39.46701869643494,-0.3898590907726856
2025-06-17T10:58:42.005753,252.0,0,ANTONIO FERRANDIS HACIA AUT. DEL SALER,39.450344671692704,-0.3583397038117746
2025-06-17T10:58:42.005753,325.0,0,INGENIERO FAUSTO ELIO HACIA V-21,39.48047814427888,-0.3324544674407446
2025-06-17T10:58:42.005753,63.0,0,CIUDADELA,39.47311193454182,-0.3672553947991724
2025-06-17T10:58:42.005753,395.0,0,AV. DEL CID (DE TRES CRUCES A PÉREZ GALDÓS),39.468112090537865,-0.3966164424766375
2025-06-17T10:58:42.005753,336.0,0,MARIA CRISTINA,39.47316923167749,-0.3776689569650144
2025-06-17T10:58:42.005753,64.0,0,SANT PIUS V - TRINITAT - GUADALAVIAR - PLA DE LA ZAIDIA,39.48085005512735,-0.3747007215744435
2025-06-17T10:58:42.005753,167.0,0,AV. DE LA PLATA HACIA ALCALDE REIG,39.45568128680804,-0.3653647715345788
2025-06-17T10:58:42.005753,30.0,0,FERRAN EL CATOLIC CAP A PONT DE LAS GLORIES VALENCIANES,39.47337918990487,-0.3869954399904819
2025-06-17T10:58:42.005753,34.0,0,EDUARD BOSCA CAP A PONT DE L'ANGEL CUSTODI),39.4656117497048,-0.3573179424577763
2025-06-17T10:58:42.005753,465.0,0,CARRERA RIU CAP A CAMI DE LES MORERES,39.44970728284488,-0.3413007256774262
2025-06-17T10:58:42.005753,61.0,0,JACINTO BENAVENTE CAP A PL. AMERICA,39.46609508106435,-0.3622419285909812
2025-06-17T10:58:42.005753,4.0,0,ISLAS CANARIAS (DE IBIZA A MANUEL CANDELA),39.4632427268843,-0.3454451687978451
2025-06-17T10:58:42.005753,1.0,0,AV. CATALUNYA D'ENTRADA,39.47731514267513,-0.3552431580651913
2025-06-17T10:58:42.005753,70.0,0,GASPAR AGUILAR CAP A TRES CREUS,39.454808254070365,-0.3915116906143555
2025-06-17T10:58:42.005753,195.0,0,JÁTIVA,39.46764137085383,-0.3773606558463213
2025-06-17T10:58:42.005753,92.0,0,CATALUÑA DE SALIDA,39.47863372728918,-0.354195698254861
2025-06-17T10:58:42.005753,460.0,0,CONSTITUCIO (DES DE PL. DON BOSCO HASTA REUS),39.488686172339,-0.3763709546859589
2025-06-17T10:58:42.005753,85.0,0,ALCALDE REIG CAP A AV. DE LA PLATA,39.46087571601335,-0.3597287311570971
2025-06-17T10:58:42.005753,52.0,0,PAZ (DE GENERAL TOVAR A MARQUÉS DE DOS AGUAS),39.473133523407725,-0.3721785803625675
2025-06-17T10:58:42.005753,457.0,0,GASPAR AGUILAR (DES DE TRES CREUS A JAIME BELTRAN),39.45317459616689,-0.3924498904490414
2025-06-17T10:58:42.005753,163.0,0,PASO INFERIOR DE PRIMADO REIG HACIA P. ALEIXANDRE,39.49147617824265,-0.3741130432952335
2025-06-17T10:58:42.005753,21.0,0,PERIS I VALERO CAP A EDUARD BOSCA,39.46002009631136,-0.3682482342060647
2025-06-17T10:58:42.005753,383.0,0,MAURO GUILLEN,39.4823164353276,-0.3829941269357674
2025-06-17T10:58:42.005753,461.0,0,CAMI DE LES MORERES CAP A PONT DE LES DRASSANES,39.45194083591484,-0.3381103925496891
2025-06-17T10:58:42.005753,24.0,0,FERRAN EL CATOLIC CAP A RAMON Y CAJAL,39.47314308935048,-0.387245153054106
2025-06-17T10:58:42.005753,198.0,0,MENORCA HACIA AV. DEL PUERTO,39.45898586546679,-0.3429000296819002
2025-06-17T10:58:42.005753,130.0,0,GERMANIES CAP A PAS INFERIOR,39.46464090115677,-0.3746382035114293
2025-06-17T10:58:42.005753,211.0,0,HNOS. MACHADO HACIA V-21 (DE JUAN XXIII A ALFAHUIR),39.49580390436169,-0.362598303484632
2025-06-17T10:58:42.005753,454.0,0,FILIPINES CAP A AUSIAS MARCH,39.45905913188072,-0.3775439378957132
2025-06-17T10:58:42.005753,59.0,0,ARAGON CAP A PL. SARAGOSSA,39.472305838035325,-0.3580524514681745
2025-06-17T10:58:42.005753,17.0,0,PEREZ GALDOS CAP A GIORGETA (SENSE P.I. NI VIA DE SERVICI),39.46352595905256,-0.3877166233324279
2025-06-17T10:58:42.005753,453.0,0,CLARIANO D'ENTRADA,39.47812446802767,-0.3517237469004032
2025-06-17T10:58:42.005753,165.0,0,PASO INFERIOR DE GRAL. AVILES HACIA PESET ALEIXANDRE,39.488910653701744,-0.3875449968013313
2025-06-17T10:58:42.005753,110.0,0,TRES FORQUES (DE TRES CRUCES A V-30),39.46342845096234,-0.4097899726383384
2025-06-17T10:58:42.005753,158.0,0,RUSSAFA,39.46610658459192,-0.3744097126956417
2025-06-17T10:58:42.005753,464.0,0,CAMI CANAL CAP A CAMI DE LES MORERES,39.45120962240931,-0.3351366587810425
2025-06-17T10:58:42.005753,19.0,0,PASO ELEVADO HACIA GIORGETA,39.45605895949036,-0.3798385764620142
2025-06-17T10:58:42.005753,473.0,0,QUEVEDO (DES D'AV. DE L'OEST FINS A GUILLEM DE CASTRO),39.469688687581815,-0.3804663139028387
2025-06-17T10:58:42.005753,203.0,0,VALLE DE LA BALLESTERA (DE MTRO. RODRIGO A PÍO BAROJA),39.47856243431591,-0.40250057766885
2025-06-17T10:58:42.005753,183.0,0,MAESTRO RODRIGO (DE GRAL. AVILES A CAMP DE TURIA),39.48767471880555,-0.4047716614257841
2025-06-17T10:58:42.005753,216.0,0,HNOS. MACHADO (DE ALFAHUIR A JUAN XXIII),39.49593060737096,-0.3625186682472364
2025-06-17T10:58:42.005753,268.0,0,J.J. DOMINE (DE PLAZA ARMADA ESPAÑOLA A AV. DEL PUERTO),39.46158867101104,-0.3313205627963092
2025-06-17T10:58:42.005753,182.0,0,SAGUNTO (DE PLAZA STA. MÓNICA A RUAYA),39.48354663572393,-0.3748765605707302
2025-06-17T10:58:42.005753,191.0,0,CNO. NUEVO DE PICAÑA HACIA TRES CRUCES,39.455810098231325,-0.4048654826848303
2025-06-17T10:58:42.005753,273.0,0,TRES FORQUES (DE V-30 A TRES CRUCES),39.46309857316689,-0.4104504457783257
2025-06-17T10:58:42.005753,159.0,0,PASEO DE LA ALAMEDA (DE EDUARDO BOSCA A PLAZA ZARAGOZA),39.46621849990404,-0.359590959840407
2025-06-17T10:58:42.005753,250.0,0,CAMP DE TURIA (DE CORTES VALENCIANAS A MAESTRO RODRIGO),39.49347929539715,-0.4055346538091611
2025-06-17T10:58:42.005753,164.0,0,PASO INFERIOR DE PESET ALEIXANDRE HACIA GRAL. AVILÉS,39.48901307584632,-0.3875911945121433
2025-06-17T10:58:42.005753,220.0,0,BLASCO IBAÑEZ (DE VIVEROS A ARAGÓN),39.47753740893947,-0.3612271879361789
2025-06-17T10:58:42.005753,7.0,0,SAN VICENTE (DE PLAZA DE ESPAÑA A S. AGUSTIN),39.46693258567546,-0.3807526234201581
2025-06-17T10:58:42.005753,316.0,0,PASO INFERIOR MENÉNDEZ PIDAL - TIRSO DE MOLINA,39.47876727945811,-0.3912149908481621
2025-06-17T10:58:42.005753,251.0,0,FRANCIA (DE T. DE MONTAÑANA A MENORCA),39.45938059737638,-0.3484934917944202
2025-06-17T10:58:42.005753,138.0,0,PADRE FERRIS HACIA JOAQUÍN BALLESTER,39.48264313042661,-0.3844905026851499
2025-06-17T10:58:42.005753,188.0,0,PROFESOR LÓPEZ PIÑERO DE ENTRADA,39.45605223735216,-0.3549979124606588
2025-06-17T10:58:42.005753,137.0,0,PÍO XII DE ENTRADA (DE SALIDA DEL PASO INFERIOR A CAMPANAR),39.48212735411087,-0.3936336609440235
2025-06-17T10:58:42.005753,216.0,0,HNOS. MACHADO (DE ALFAHUIR A JUAN XXIII),39.49900055560726,-0.379060942841344
2025-06-17T10:58:42.005753,209.0,0,JUAN XXIII HACIA PESET ALEIXANDRE,39.49388887995795,-0.3836008708471451
2025-06-17T10:58:42.005753,269.0,0,ING. MANUEL SOTO (DE PUENTE DE ASTILLEROS A J.J. DOMINE),39.45680107403567,-0.3310891508988189
2025-06-17T10:58:42.005753,146.0,0,FILIPINAS HACIA GERMANÍAS,39.45959026228514,-0.377521610433715
2025-06-17T10:58:42.005753,261.0,0,NARANJOS (DE CATALUÑA A RAMÓN LLULL),39.48048050632357,-0.347954269435648
2025-06-17T10:58:42.005753,272.0,0,S. VICENTE MÁRTIR (DE ARZOBISPO OLAECHEA A FDO. ABRIL MARTORELL),39.44472523908793,-0.3869383784401919
2025-06-17T10:58:42.005753,82.0,0,ARCHIDUQUE CARLOS HACIA TRES FORQUES,39.46117323611077,-0.3989635639709
2025-06-17T10:58:42.005753,147.0,0,QUART (DE GUILLEM DE CASTRO A FDO. CATÓLICO),39.475425280311576,-0.3861753240502523
2025-06-17T10:58:42.005753,172.0,0,PUENTE DE LAS FLORES,39.471127589008894,-0.364171616666134
2025-06-17T10:58:42.005753,218.0,0,ALFAHUIR HACIA HNOS. MACHADO,39.49084261445285,-0.363040185813557
2025-06-17T10:58:42.005753,283.0,0,AUTOPISTA DEL SALER LATERAL DE SALIDA,39.45169104197456,-0.3508271616125331
2025-06-17T10:58:42.005753,186.0,0,SAN VICENTE (DE FDO. ABRIL MARTORELL A GIORGETA),39.45200770690512,-0.3847481733887977
2025-06-17T10:58:42.005753,149.0,0,PRIMADO REIG (DE CAVANILLES A CATALUÑA),39.48137828987718,-0.3596623298792458
2025-06-17T10:58:42.005753,232.0,0,BALEARES (DE MENORCA A E. BOSCÁ),39.46160676420583,-0.3500556731155977
2025-06-17T10:58:42.005753,44.0,0,PAVÍA (DE MEDITERRÁNEO A HISTORIADOR COLOMA),39.46898963038943,-0.3248170018777049
2025-06-17T10:58:42.005753,215.0,0,CAMINO MONCADA (DE PESET ALEIXANDRE A HNOS. MACHADO),39.49472467041672,-0.3801236876521357
2025-06-17T10:58:42.005753,58.0,0,ARAGÓN HACIA BLASCO IBAÑEZ,39.47193460727437,-0.357598604875885
2025-06-17T10:58:42.005753,168.0,0,NICASIO BENLLOCH,39.49214199753694,-0.3964780855525451
2025-06-17T10:58:42.005753,57.0,0,PROFESOR LÓPEZ PIÑERO (DE AV. DE LA PLATA A A. FERRANDIS),39.45577098044626,-0.3554912137931741
2025-06-17T10:58:42.005753,41.0,0,RAMÓN LLULL HACIA BLASCO IBÁÑEZ,39.47696724605518,-0.3466945617450562
2025-06-17T10:58:42.005753,140.0,0,CUENCA (DE PÉREZ GALDÓS A ALBERIQUE),39.46502496790791,-0.3876687169230368
2025-06-17T10:58:42.005753,38.0,0,COLÓN,39.46943446920381,-0.3716571903402729
2025-06-17T10:58:42.005753,335.0,0,PLAÇA DEL AJUNTAMENT,39.46971965385164,-0.3763303779920934
2025-06-17T10:58:42.005753,315.0,0,PASO INFERIOR MAURO GUILLÉN - MENÉNDEZ PIDAL,39.48151084376852,-0.3844963781153191
2025-06-17T10:58:42.005753,313.0,0,PASO INFERIOR ANTONIO FERRANDIS HACIA TRES CRUCES,39.44607768893405,-0.3692741522244184
2025-06-17T10:58:42.005753,342.0,0,V-21 SENTIDO SALIDA,39.48510296774502,-0.345684702573397
2025-06-17T10:58:42.005753,340.0,0,CV-500 SENTIDO SALIDA,39.44813754814106,-0.3461740945841026
2025-06-17T10:58:42.005753,258.0,0,ACCESO DESDE CV-30 A MAESTRO RODRIGO,39.49649690452708,-0.408613522920885
2025-06-17T10:58:42.005753,318.0,0,AUSIAS MARCH DE SALIDA,39.45163323306639,-0.3722098974474225
2025-06-17T10:58:42.005753,403.0,0,MENORCA HACIA ALAMEDA,39.45924939652225,-0.3428513765563654
2025-06-17T10:58:42.005753,289.0,0,PUENTE REINO DE VALENCIA HACIA ALCALDE REIG,39.46190176696173,-0.3590870960399089
2025-06-17T10:58:42.005753,359.0,0,CONDE TRÉNOR - PINTOR LÓPEZ,39.47785421822949,-0.3726998270480477
2025-06-17T10:58:42.005753,314.0,0,PASO INFERIOR ANTONIO FERRANDIS HACIA AUT. DEL SALER,39.44596883311371,-0.369250910338958
2025-06-17T10:58:42.005753,371.0,0,PASEO DE LA ALAMEDA (DE E. BOSCÁ A PUENTE DEL REINO),39.46257849954368,-0.358251226601514
2025-06-17T10:58:42.005753,270.0,0,PASEO DE LA ALAMEDA (DE PLAZA ZARAGOZA A EDUARDO BOSCA),39.46615596173048,-0.3598560806062669
2025-06-17T10:58:42.005753,298.0,0,PUENTE DE LAS ARTES HACIA GUILLEM DE CASTRO,39.48095611147806,-0.383725505597495
2025-06-17T10:58:42.005753,369.0,0,FRANCIA (DE TOMÁS DE MONTAÑANA A PUENTE DEL REINO),39.46110620430628,-0.3551855369671892
2025-06-17T10:58:42.005753,380.0,0,PUERTO (DE M. CANDELA A SERRERÍA),39.46364832036867,-0.3450146004525268
2025-06-17T10:58:42.005753,357.0,0,PADRE FERRIS HACIA PUENTE DE LAS ARTES,39.48321537350229,-0.3850574255050326
2025-06-17T10:58:42.005753,245.0,0,AV. DEL PUERTO (DE SERRERÍA A J.J. DÓMINE),39.46091314855906,-0.3358367359904664
2025-06-17T10:58:42.005753,341.0,0,AUSIAS MARCH (DE A. FERRANDIS A V-31),39.43975126356118,-0.3697926891803798
2025-06-17T10:58:42.005753,279.0,0,PIO XII (DE MENÉNDEZ PIDAL A JOAQUIN BALLESTER),39.480122244920096,-0.3918575603876175
2025-06-17T10:58:42.005753,265.0,0,EUGENIA VIÑES (DE MEDITERRÁNEO A MARCOS SOPENA),39.465398712889126,-0.3249492582570883
2025-06-17T10:58:42.005753,257.0,0,HERMANOS MACHADO (DE CV-30 A AV. DEL LEVANTE),39.49993704273264,-0.3889298764648512
2025-06-17T10:58:42.005753,322.0,0,PUENTE DE GLORIAS VALENCIANAS HACIA FERNANDO EL CATOLICO,39.47810852422073,-0.390682101722769
2025-06-17T10:58:42.005753,311.0,0,PASO INFERIOR PECHINA,39.47660890420897,-0.3923367456160742
2025-06-17T10:58:42.005753,351.0,0,BURJASSOT (DE PESET ALEIXANDRE A BENICALAP),39.493816035643256,-0.3948778069711774
2025-06-17T10:58:42.005753,304.0,0,PUENTE ASTILLEROS HACIA CNO. MORERAS,39.45333508839178,-0.3316654660895012
2025-06-17T10:58:42.005753,238.0,0,LINARES,39.46864425071652,-0.3935320251372186
2025-06-17T10:58:42.005753,301.0,0,PUENTE DEL ÁNGEL CUSTODIO HACIA P. Y VALERO,39.463501321998486,-0.3598562314192138
2025-06-17T10:58:42.005753,295.0,0,PUENTE NUEVE DE OCTUBRE HACIA PÍO BAROJA,39.47390102680201,-0.4056094340961471
2025-06-17T10:58:42.005753,271.0,0,S. VICENTE MARTIR (DE TOMAS SALA A ARZOBISPO OLAECHEA),39.44473772959272,-0.3870885591398186
2025-06-17T10:58:42.005753,308.0,0,PASO INFERIOR PÉREZ GALDÓS HACIA MTRO. RODRIGO,39.46802902125431,-0.3907429038315824
2025-06-17T10:58:42.005753,365.0,0,REINO DE VALENCIA (DE PERIS Y VALERO A ALCALDE REIG),39.46224477553304,-0.3615220247649102
2025-06-17T10:58:42.005753,323.0,0,RAMÓN LLULL HACIA NARANJOS,39.47690434346718,-0.3464559138311304
2025-06-17T10:58:42.005753,441.0,0,PAZ (DE MARQUÉS DE DOS AGUAS A PL. DE LA REINA),39.473669952522194,-0.3748654164676566
2025-06-17T10:58:42.005753,,0,,,
2025-06-17T10:58:42.005753,,0,,,
2025-06-17T10:58:42.005753,432.0,0,GENERAL AVILÉS (DE PASO INFERIOR A PÍO XII),39.4867052797197,-0.3942443619682079
2025-06-17T10:58:42.005753,476.0,0,PASO INFERIOR DE TRES FORQUES HACIA ROS CASARES,39.46286764318744,-0.4137119423012736
2025-06-17T10:58:42.005753,327.0,0,EDUARDO PRIMO YÚFERA HACIA PUENTE DE L'ASSUT DE L'OR,39.452053101822735,-0.3465761336415356
2025-06-17T10:58:42.005753,427.0,0,ISLAS CANARIAS (DE EDUARDO BOSCÁ A ALAMEDA),39.46695290265876,-0.3584567186553126
2025-06-17T10:58:42.005753,406.0,0,FDO. ABRIL MARTORELL (DE MALILLA A SAN VICENTE),39.44596239871689,-0.3832079554702974
2025-06-17T10:58:42.005753,418.0,0,TRES CRUCES (DE CNO. NUEVO DE PICAÑA A GASPAR AGUILAR),39.453374969209285,-0.3991459661637182
2025-06-17T10:58:42.005753,151.0,0,PRIMADO REIG (DE EMILIO BARÓ A SAN VICENTE PAUL),39.48710451237888,-0.3670615422895449
2025-06-17T10:58:42.005753,422.0,0,BLASCO IBAÑEZ (DE ARAGÓN A CARDENAL BENLLOCH),39.47567158968992,-0.3539951342629055
2025-06-17T10:58:42.005753,417.0,0,TRES CRUCES (DE GASPAR AGUILAR A ARCHIDUQUE CARLOS),39.453611717126,-0.3987680097654719
2025-06-17T10:58:42.005753,423.0,0,BLASCO IBAÑEZ (DE CARDENAL BENLLOCH A M. CANDELA),39.474557941478025,-0.3502246095292907
2025-06-17T10:58:42.005753,180.0,0,TOMAS SALA (DE CARTEROS A GASPAR AGUILAR),39.4482869158909,-0.3924621093056719
2025-06-17T10:58:42.005753,411.0,0,TOMAS SALA (DE GASPAR AGUILAR A CARTEROS),39.448156036623786,-0.3925373883493013
2025-06-17T10:58:42.005753,386.0,0,VÍA DE SERVICIO PASO INFERIOR DE PESET ALEIXANDRE A GENERAL AVILÉS,39.489463878974846,-0.3865141319017113
2025-06-17T10:58:42.005753,446.0,0,LLANO DE ZAIDÍA (DE PUENTE DE LAS ARTES A POETA MONMENEU),39.48257278091984,-0.3805911774634692
2025-06-17T10:58:42.005753,256.0,0,HERMANOS MACHADO (DE AV. DEL LEVANTE A CV-30),39.500077494179685,-0.38874408615853
2025-06-17T10:58:42.005753,447.0,0,GUADALAVIAR (DE POETA MONMENEU A PUENTE DE MADERA),39.48161524343882,-0.3754118026719585
2025-06-17T10:58:42.005753,401.0,0,VÍA DE SERVICIO DE GENERAL AVILÉS A LA SAFOR,39.48804165531472,-0.3973396445404435
2025-06-17T10:58:42.005753,430.0,0,VÍA DE SERVICIO DE PÍO XII A GRAL. AVILÉS,39.48436346882107,-0.3947308677880029
2025-06-17T10:58:42.005753,393.0,0,PASO INFERIOR AV. DEL CID HACIA PÉREZ GALDÓS,39.46968578972779,-0.4059148701576997
2025-06-17T10:58:42.005753,419.0,0,BLASCO IBAÑEZ (DE SERRERÍA A RAMÓN LLULL),39.47232645393236,-0.341083687543454
2025-06-17T10:58:42.005753,389.0,0,PASEO PECHINA (DE NUEVE DE OCTUBRE A PÉREZ GALDÓS),39.47395317064126,-0.4005208754220298
2025-06-17T10:58:42.005753,105.0,0,TRES FORQUES (DE TRES CRUCES A PÉREZ GALDÓS),39.4638529172053,-0.3968074558524354
2025-06-17T11:01:43.964131,166.0,0,AV. DE LA PLATA HACIA AUSIAS MARCH,39.45584475548337,-0.3654706314265538
2025-06-17T11:01:43.964131,189.0,0,ACCESO DESDE A-3 A AV. DEL CID,39.46919623973966,-0.4182334761592123
2025-06-17T11:01:43.964131,459.0,0,VIA DE SERVEI D'ANTONIO FERRANDIS CAP A AUTOPISTA DEL SALER,39.4470633349177,-0.3661715041757855
2025-06-17T11:01:43.964131,404.0,0,MALILLA CAP A CENTRE CIUTAT,39.449467674314754,-0.3792896877235342
2025-06-17T11:01:43.964131,2.0,0,CLARIANO D´EIXIDA,39.4782757347188,-0.3514178017354239
2025-06-17T11:01:43.964131,90.0,0,TOMAS DE MONTAÑANA CAP A AV. DEL PORT,39.46293648191689,-0.3521612137442843
2025-06-17T11:01:43.964131,199.0,0,SERRERÍA HACIA BLASCO IBÁÑEZ,39.465406595904575,-0.3358936708231511
2025-06-17T11:01:43.964131,421.0,0,BLASCO IBAÑEZ A VIVERS (DES DE CLARIANO A AV. ARAGO),39.47586949839943,-0.3538972056392176
2025-06-17T11:01:43.964131,3.0,0,AV. CONSTITUCIO D'ENTRADA (DES DE CORONEL MONTESINOS),39.49324907628858,-0.3733179456917436
2025-06-17T11:01:43.964131,196.0,0,EUGENIA VIÑES (DE HISTORIADOR COLOMA A MEDITERRÁNEO),39.4689822300759,-0.3254869640570734
2025-06-17T11:01:43.964131,179.0,0,PASO INFERIOR CLARIANO,39.48169766976795,-0.3504452458967991
2025-06-17T11:01:43.964131,47.0,0,PASO INFERIOR GERMANIAS HACIA PLAZA ESPAÑA,39.46384536541438,-0.378586275873344
2025-06-17T11:01:43.964131,466.0,0,ACCES DES DE EDUARDO PRIMO YUFERA A CAMI DE LES MORERES,39.45210412975758,-0.3407400283436962
2025-06-17T11:01:43.964131,56.0,0,PERIODISTA AZZATI,39.46952242865396,-0.3777645568544135
2025-06-17T11:01:43.964131,27.0,0,MARQUES DEL TURIA CAP A GERMANIES,39.46701292935422,-0.3692154347035139
2025-06-17T11:01:43.964131,83.0,0,ARXIDUC CARLES CAP A TRES CREUS,39.462924307551,-0.3972661582815889
2025-06-17T11:01:43.964131,382.0,0,PASSEIG D'ALBEREDA (DES DE PONT EXPOSICIO A PONT DE LES FLORS),39.47264433635456,-0.3640823234098735
2025-06-17T11:01:43.964131,20.0,0,GIORGETA CAP A PERIS I VALERO,39.46000415854263,-0.3852093451557978
2025-06-17T11:01:43.964131,190.0,0,AUSIAS MARCH (DE V-31 A A. FERRANDIS),39.44187965860989,-0.3693281232927319
2025-06-17T11:01:43.964131,23.0,0,EDUARD BOSCA CAP A CARDENAL BENLLOCH,39.46556002818757,-0.3571509366493807
2025-06-17T11:01:43.964131,193.0,0,PASO INFERIOR PROFESOR LÓPEZ PIÑERO DE ENTRADA,39.45487404623732,-0.353853895633374
2025-06-17T11:01:43.964131,455.0,0,OEST (MERCAT CENTRAL),39.47102551984442,-0.3796014446856867
2025-06-17T11:01:43.964131,184.0,0,HNOS. MACHADO (DE V-21 A ALFAHUIR),39.48818230484527,-0.3534513334918205
2025-06-17T11:01:43.964131,74.0,0,MEDITERRANIA (DES DE PROGRES A E. VIÑES),39.46754845444436,-0.3278384950989337
2025-06-17T11:01:43.964131,45.0,0,MESTRE RODRIGO (DES DE GRAL. AVILES A TIRSO MOLINA),39.47984758145938,-0.3993787630241544
2025-06-17T11:01:43.964131,67.0,0,TRES CREUS (DES DE TRES FORQUES A AV. DEL CID),39.46666688786543,-0.4055811729744648
2025-06-17T11:01:43.964131,40.0,0,GUILLEM DE CASTRO,39.473552694509365,-0.3832604257732642
2025-06-17T11:01:43.964131,201.0,0,GENERAL AVILES (DE PIO XII A MESTRE RODRIGO),39.48460789214968,-0.3991087551987221
2025-06-17T11:01:43.964131,87.0,0,TOMAS DE MONTAÑANA CAP A PONT DE MONTEOLIVET,39.463009403859736,-0.3524298883120921
2025-06-17T11:01:43.964131,129.0,0,GERMANIES CAP A MARQUES DEL TURIA,39.46447610612035,-0.3745169072076328
2025-06-17T11:01:43.964131,54.0,0,FRANCIA (DE MENORCA A T. DE MONTAÑANA),39.45963468463744,-0.3484286211248869
2025-06-17T11:01:43.964131,46.0,0,MESTRE RODRIGO (DES DE TIRSO DE MOLINA A GRAL. AVILES),39.47984415696816,-0.3991210251862677
2025-06-17T11:01:43.964131,249.0,0,MAESTRO RODRIGO (DE CAMP DE TURIA A GRAL. AVILÉS),39.4875544697754,-0.4050504740711234
2025-06-17T11:01:43.964131,132.0,0,VÍA DE SERVICIO DEL PASO INFERIOR A. FERRANDIS (DE CRA. MALILLA A A. MARCH),39.44499272977041,-0.3714292077827567
2025-06-17T11:01:43.964131,145.0,0,PASO ELEVADO HACIA PERIS Y VALERO,39.455922578944985,-0.3798342944363131
2025-06-17T11:01:43.964131,230.0,0,JUAN VERDEGUER (DE ING. MANUEL SOTO A MENORCA),39.45898110452792,-0.3374971954303833
2025-06-17T11:01:43.964131,81.0,0,PINTOR SOROLLA,39.47113811109414,-0.3725394625228076
2025-06-17T11:01:43.964131,80.0,0,AUSIAS MARCH HACIA PERIS Y VALERO,39.45168464187443,-0.3719770061268647
2025-06-17T11:01:43.964131,197.0,0,PASEO DE LA ALAMEDA (DE PUENTE MONTEOLIVETE A MENORCA),39.45797330808955,-0.3507639800815976
2025-06-17T11:01:43.964131,169.0,0,NARANJOS (DE RAMON LLULL A LUIS PEIXO),39.47802109451111,-0.3394100479232136
2025-06-17T11:01:43.964131,214.0,0,JUAN XXIII HACIA HNOS. MACHADO,39.49394437936061,-0.3833630854812266
2025-06-17T11:01:43.964131,248.0,0,EUGENIA VIÑES (DE MARCOS SOPENA A MEDITERRÁNEO),39.46538510801776,-0.3247916652780374
2025-06-17T11:01:43.964131,222.0,0,CORTES VALENCIANAS (DE CAMP DE TURIA A LA SAFOR),39.492435623641725,-0.4009840911786421
2025-06-17T11:01:43.964131,227.0,0,MARQUÉS DEL TÚRIA HACIA PUENTE DE ARAGÓN,39.46683889481911,-0.3688257950989793
2025-06-17T11:01:43.964131,259.0,0,GENERAL ELIO HACIA PUENTE DEL REAL,39.47825513798841,-0.3669972753256481
2025-06-17T11:01:43.964131,187.0,0,CORTES VALENCIANAS (DE CV-35 A CAMP DE TURIA),39.49676623680192,-0.4040724496780322
2025-06-17T11:01:43.964131,78.0,0,ANGEL GUIMERÁ (DE F. CATÓLICO A P. GALDÓS),39.4696891428017,-0.3885045338890646
2025-06-17T11:01:43.964131,43.0,0,BLASCO IBAÑEZ (DE CATALUÑA A VIVEROS),39.47817857523362,-0.3609765764336744
2025-06-17T11:01:43.964131,282.0,0,CONSTITUCIÓN (DE HERMANOS MACHADO A TAVERNES BLANQUES),39.49955170913957,-0.3700778715218118
2025-06-17T11:01:43.964131,239.0,0,CAMPANAR (DE TIRSO DE MOLINA A PÍO XII),39.47928834615428,-0.393913840353462
2025-06-17T11:01:43.964131,139.0,0,PASCUAL Y GENÍS,39.46915689263018,-0.3738730771356714
2025-06-17T11:01:43.964131,260.0,0,PUENTE DEL REAL HACIA PLAZA TETUÁN,39.47640935229757,-0.3688531403494167
2025-06-17T11:01:43.964131,84.0,0,ALCALDE REIG HACIA PERIS Y VALERO,39.46094266852524,-0.3595039448369694
2025-06-17T11:01:43.964131,247.0,0,DOCTOR LLUCH HACIA NARANJOS,39.46535657269016,-0.3286279656606516
2025-06-17T11:01:43.964131,53.0,0,ROGER DE LAURIA,39.46914675125608,-0.3739048008217518
2025-06-17T11:01:43.964131,280.0,0,PASO INFERIOR PIO XII DE SALIDA,39.48590697210074,-0.3960553528942918
2025-06-17T11:01:43.964131,217.0,0,PASO INFERIOR HNOS. MACHADO HACIA JUAN XXIII,39.49807436653983,-0.3701332262175368
2025-06-17T11:01:43.964131,213.0,0,ALFAHUIR HACIA PRIMADO REIG,39.49114958329602,-0.3633408722026838
2025-06-17T11:01:43.964131,131.0,0,RUZAFA DE PLAZA DR. LANDETE A GERMANÍAS,39.46396371881648,-0.3728232379375897
2025-06-17T11:01:43.964131,360.0,0,SAGUNTO (DE RUAYA A CONSTITUCIÓN),39.488601993338925,-0.3747894446638248
2025-06-17T11:01:43.964131,362.0,0,EDUARDO PRIMO YÚFERA HACIA NAZARET,39.451898340390336,-0.3466988978657531
2025-06-17T11:01:43.964131,364.0,0,REINO DE VALENCIA (DE GERMANÍAS A PERIS Y VALERO),39.46271062362656,-0.3635732629472894
2025-06-17T11:01:43.964131,344.0,0,PÉREZ GALDÓS HACIA PUENTE CAMPANAR,39.46365697758,-0.3875757865768054
2025-06-17T11:01:43.964131,338.0,0,CORTES VALENCIANAS (DE CAMP DE TURIA A CV-35),39.49692515677082,-0.4039253105757624
2025-06-17T11:01:43.964131,355.0,0,AV. DEL CID (DE NUEVE DE OCTUBRE A A-3),39.4697314756599,-0.4122632061041307
2025-06-17T11:01:43.964131,364.0,0,REINO DE VALENCIA (DE GERMANÍAS A PERIS Y VALERO),39.46387445702416,-0.3689917101287021
2025-06-17T11:01:43.964131,307.0,0,PASO INFERIOR PÍO XII DE ENTRADA,39.48580138312249,-0.396231191581797
2025-06-17T11:01:43.964131,305.0,0,PUENTE ASTILLEROS HACIA ING. MANUEL SOTO,39.45324749798648,-0.331553321668773
2025-06-17T11:01:43.964131,293.0,0,PUENTE DE LA EXPOSICIÓN HACIA ALAMEDA,39.473138722444816,-0.3658937621029786
2025-06-17T11:01:43.964131,352.0,0,PESET ALEIXANDRE (DE JUAN XXIII A PRIMADO REIG),39.49076205877712,-0.379595824966712
2025-06-17T11:01:43.964131,339.0,0,A-3 SENTIDO SALIDA,39.4694214563251,-0.4182708140051018
2025-06-17T11:01:43.964131,287.0,0,PUENTE DE LAS ARTES HACIA MENÉNDEZ PIDAL,39.481099101733214,-0.3834471488392138
2025-06-17T11:01:43.964131,372.0,0,CAMP DE TURIA (DE M. RODRIGO A CORTES VALENCIANAS),39.49320232432847,-0.4053204644681352
2025-06-17T11:01:43.964131,267.0,0,MARCOS SOPENA (DE EUGENIA VIÑES A PLAZA ARMADA ESPAÑOLA),39.46321287423368,-0.3269941170291252
2025-06-17T11:01:43.964131,374.0,0,LA SAFOR (DE CORTES VALENCIANAS A M. RODRIGO),39.48915379266813,-0.4023892882222454
2025-06-17T11:01:43.964131,288.0,0,PUENTE DEL REAL HACIA VIVEROS,39.47629668387465,-0.3687494899198133
2025-06-17T11:01:43.964131,345.0,0,NUEVE DE OCTUBRE HACIA PÍO BAROJA,39.47153380924273,-0.4052031513721389
2025-06-17T11:01:43.964131,344.0,0,PÉREZ GALDÓS HACIA PUENTE CAMPANAR,39.47316027804814,-0.3943410904507086
2025-06-17T11:01:43.964131,292.0,0,VALLE DE LA BALLESTERA (DE MTRO. RODRIGO A PÍO XII),39.48000689709962,-0.3958586768165234
2025-06-17T11:01:43.964131,385.0,0,VÍA DE SERVICIO PASO INFERIOR DE GRAL. AVILÉS A PESET ALEIXANDRE,39.48915699494085,-0.3863626246925892
2025-06-17T11:01:43.964131,266.0,0,MARCOS SOPENA (DE PLAZA ARMADA ESPAÑOLA A EUGENIA VIÑES),39.46304369782034,-0.3269736975961338
2025-06-17T11:01:43.964131,368.0,0,FRANCIA (DE PUENTE DEL REINO A TOMÁS DE MONTAÑANA),39.46051160160744,-0.3555657521183961
2025-06-17T11:01:43.964131,381.0,0,GENERAL AVILÉS (DE M. RODRIGO A PÍO BAROJA),39.48231832701224,-0.4043683304524538
2025-06-17T11:01:43.964131,309.0,0,PASO INFERIOR PEREZ GALDOS HACIA GIORGETA,39.4679787584152,-0.3908519237053131
2025-06-17T11:01:43.964131,296.0,0,PUENTE DE CAMPANAR HACIA PÉREZ GALDÓS,39.47572807415988,-0.3964437445049349
2025-06-17T11:01:43.964131,277.0,0,PASO INFERIOR CATALUÑA DE SALIDA,39.480996222672026,-0.3518736145349449
2025-06-17T11:01:43.964131,274.0,0,PUENTE DEL ASSUT DE L'OR HACIA MENORCA,39.45469761327399,-0.3495825540040758
2025-06-17T11:01:43.964131,290.0,0,PUENTE REINO DE VALENCIA HACIA FRANCIA,39.46170929899682,-0.3589584618886647
2025-06-17T11:01:43.964131,331.0,0,PASEO DE LA ALAMEDA (DE LLANO DEL REAL A PUENTE DE LA EXPOSICION),39.4751021462844,-0.3660445328061775
2025-06-17T11:01:43.964131,330.0,0,PASEO DE LA ALAMEDA (DE PUENTE DE LA EXPOSICION A LLANO DEL REAL),39.47520516414651,-0.3658496932467651
2025-06-17T11:01:43.964131,334.0,0,JOAQUÍN BALLESTER HACIA PADRE FERRIS,39.48304500388587,-0.3893257443426723
2025-06-17T11:01:43.964131,297.0,0,PUENTE DE CAMPANAR HACIA MTRO RODRIGO,39.475796056763166,-0.3962938578878808
2025-06-17T11:01:43.964131,332.0,0,PASEO DE LA ALAMEDA (DE PUENTE DE LA EXPOSICION A ZARAGOZA),39.47043182723874,-0.3622935918953706
2025-06-17T11:01:43.964131,276.0,0,PASO INFERIOR CATALUÑA DE ENTRADA,39.48106834028241,-0.3520383004423561
2025-06-17T11:01:43.964131,317.0,0,PASO INFERIOR TIRSO DE MOLINA - MANUEL DE FALLA,39.47660979036577,-0.3966376431551479
2025-06-17T11:01:43.964131,278.0,0,PIO XII (DE CAMPANAR A TIRSO DE MOLINA),39.480021747178974,-0.3920709048556676
2025-06-17T11:01:43.964131,377.0,0,TRES CRUCES (DE TRES FORQUES A ARCHIDUQUE CARLOS),39.460809737869,-0.4043707349120037
2025-06-17T11:01:43.964131,337.0,0,OEST (SANT AGUSTI),39.47102502955703,-0.3797662852296538
2025-06-17T11:01:43.964131,,0,,,
2025-06-17T11:01:43.964131,394.0,0,AV. DEL CID (DE A-3 A NUEVE DE OCTUBRE),39.46952237588906,-0.4121275303068494
2025-06-17T11:01:43.964131,434.0,0,CAMP DEL TURIA (DE CORTES VALENCIANAS A NICASIO BENLLOCH),39.49511784939858,-0.4009174816550205
2025-06-17T11:01:43.964131,253.0,0,ANTONIO FERRANDIS HACIA AUSIAS MARCH,39.45064139274389,-0.3585718451850702
2025-06-17T11:01:43.964131,435.0,0,CAMP DEL TURIA (DE NICASIO BENLLOCH A CORTES VALENCIANAS),39.4953845576506,-0.4011085098233489
2025-06-17T11:01:43.964131,415.0,0,VÍA DE SERVICIO DE HNOS. MACHADO HACIA ALFAHUIR,39.49786997709089,-0.3702672254981869
2025-06-17T11:01:43.964131,69.0,0,SAN JOSE DE CALASANZ - PINTOR BENEDITO,39.4662319389413,-0.3857343272367827
2025-06-17T11:01:43.964131,408.0,0,CARTEROS HACIA TOMAS SALA,39.45036061867714,-0.3891899863018349
2025-06-17T11:01:43.964131,433.0,0,VÍA DE SERVICIO DE GENERAL AVILÉS A NICASIO BENLLOCH,39.48759563881619,-0.3915459481249286
2025-06-17T11:01:43.964131,424.0,0,BLASCO IBAÑEZ (DE M.CANDELA A SERRERÍA),39.47172603922722,-0.3413667880726616
2025-06-17T11:01:43.964131,414.0,0,VÍA DE SERVICIO DE HNOS. MACHADO HACIA CNO. MONCADA,39.4981878678564,-0.3700769218897111
2025-06-17T11:01:43.964131,208.0,0,MANUEL DE FALLA,39.47520469558,-0.4026120831264714
2025-06-17T11:01:43.964131,448.0,0,PL. SAN AGUSTÍN,39.46858856663464,-0.3794510081519771
2025-06-17T11:01:43.964131,407.0,0,TOMAS SALA (DE SAN VICENTE A CARTEROS),39.44689519592839,-0.3879872696532171
2025-06-17T11:01:43.964131,388.0,0,VÍA DE SERVICIO PASO INFERIOR DE PESET ALEIXANDRE A PRIMADO REIG,39.49125431805799,-0.3741713818120482
2025-06-17T11:01:43.964131,416.0,0,CONSTITUCIÓN (DE TAVERNES BLANQUES A HNOS.MACHADO),39.49959023338232,-0.3701927313923045
2025-06-17T11:01:43.964131,373.0,0,LA SAFOR (DE M. RODRIGO A CORTES VALENCIANAS),39.48887829368749,-0.4021774965308397
2025-06-17T11:01:43.964131,402.0,0,EMILIO BARÓ,39.48821298401028,-0.3606524969398358
2025-06-17T11:01:43.964131,100.0,3,ALICANTE (DE XÀTIVA A GERMANÍAS),39.465307009307175,-0.3772542485482671
2025-06-17T11:01:43.964131,391.0,0,AV. DEL CID (DE LINARES A NUEVE DE OCTUBRE),39.46882836206088,-0.3994732742292723
2025-06-17T11:01:43.964131,326.0,0,JOAQUIN BALLESTER HACIA PÍO XII,39.48335783575127,-0.3889633146900485
2025-06-17T11:01:43.964131,445.0,0,AV. MENÉNDEZ PIDAL (DE PUENTE DE ADEMUZ A PUENTE DE LAS ARTES),39.480072968485736,-0.3874661255916911
2025-06-17T11:01:43.964131,426.0,0,CAMPANAR (DE PESET ALEIXANDRE A PÍO XII),39.48493959965028,-0.3913579628115289
2025-06-17T11:01:43.964131,255.0,0,AV. DEL LEVANTE (DE ECUADOR A JUAN XXIII),39.49577512415503,-0.3887909741902337
2025-06-17T11:01:43.964131,392.0,0,PASO INFERIOR AV. DEL CID HACIA A-3,39.46982719869189,-0.4059249183556874
2025-06-17T11:01:43.964131,99.0,0,JACINTO BENAVENTE HACIA ALCALDE REIG,39.466023957749336,-0.3625893962577639
2025-06-17T11:01:43.964131,328.0,0,INGENIERO FAUSTO ELIO HACIA NARANJOS,39.48049733595654,-0.332649250561997
2025-06-17T11:01:43.964131,37.0,0,RAMÓN Y CAJAL HACIA FDO. EL CATÓLICO,39.46769089975571,-0.3828984190279645
2025-06-17T11:01:43.964131,175.0,0,FDO. ABRIL MARTORELL (DE AUSIAS MARCH A MALILLA),39.445305697169744,-0.3746190576391136
2025-06-17T11:01:43.964131,440.0,0,MARQUÉS DE SOTELO (DE XÀTIVA A AYUNTAMIENTO),39.46838918596895,-0.3768603635336205
2025-06-17T11:01:43.964131,324.0,0,MARINO BLAS DE LEZO - LUIS PEIXÓ HACIA NARANJOS,39.47318865692153,-0.3338732251124759
2025-06-17T11:01:43.964131,76.0,0,TRES CREUS (DES DE AV. DEL CID A TRES FORQUES),39.46670592585357,-0.40633058322249
2025-06-17T11:01:43.964131,185.0,0,HNOS. MACHADO (DE ALFAHUIR A V-21),39.48808070406089,-0.3536228442964958
2025-06-17T11:01:43.964131,86.0,0,M. CANDELA CAP A AV. DEL PORT,39.4696488979705,-0.3497410849052459
2025-06-17T11:01:43.964131,98.0,0,PLAZA ALFONSO EL MAGNÁNIMO - PALACIO DE JUSTICIA,39.47180308184628,-0.370009133276076
2025-06-17T11:01:43.964131,152.0,0,BLANQUERÍAS (DESDE SALIDA DEL PASO INFERIOR A TORRES DE SERRANOS),39.48032808386881,-0.3775989469629154
2025-06-17T11:01:43.964131,17.0,0,PEREZ GALDOS CAP A GIORGETA,39.473087378085566,-0.3945154450305949
2025-06-17T11:01:43.964131,262.0,0,AV. DELS TARONGERS (DES DE LLUIS PEIXO A DR. LLUCH),39.47541809912133,-0.3303779557924317
2025-06-17T11:01:43.964131,456.0,0,JAIME BELTRAN - URUGUAY (CAP A GIORGETA),39.45797971069469,-0.3875136710183217
2025-06-17T11:01:43.964131,384.0,0,PASSEIG D'ALBEREDA (DES DE PONT DE LES FLORS A PONT EXPOSICIO),39.47271898157035,-0.3638626267950421
2025-06-17T11:01:43.964131,25.0,0,CARDENAL BENLLOCH HACIA BLASCO IBAÑEZ,39.47113007783519,-0.3544233750140954
2025-06-17T11:01:43.964131,474.0,0,COMTE LUMIARES (CAP A AV. CONSTITUCIO),39.496298550798365,-0.3720959731663344
2025-06-17T11:01:43.964131,48.0,0,GENERAL AVILÉS (DE MTRO. RODRIGO A PÍO XII),39.48450180935379,-0.3987915446608716
2025-06-17T11:01:43.964131,72.0,0,NOU D'OCTUBRE CAP A AV. DEL CID,39.47155428756677,-0.4055675574990461
2025-06-17T11:01:43.964131,91.0,0,M. CANDELA CAP A BLASCO IBAÑEZ,39.46957839314975,-0.3494830311993885
2025-06-17T11:01:43.964131,28.0,0,CAMI DE MONTCADA (DES DE POBLE NOU A GERMANS MACHADO),39.5002765358223,-0.3812624125520626
2025-06-17T11:01:43.964131,194.0,0,INGENIERO MANUEL SOTO HACIA PUENTE DE ASTILLEROS,39.45691035787034,-0.3313783008387256
2025-06-17T11:01:43.964131,462.0,0,CAMI DE LES MORERES CAP A CARRERA DEL RIU,39.4520891383572,-0.3382016547584431
2025-06-17T11:01:43.964131,420.0,0,BLASCO IBAÑEZ (DES DE RAMON LLULL A CLARIANO),39.47476900484969,-0.3501296714376762
2025-06-17T11:01:43.964131,88.0,0,GERMANS MARISTES CAP A AUSIAS MARCH,39.45228102225633,-0.3662925622492758
2025-06-17T11:01:43.964131,89.0,0,GERMANS MARISTES CAP A PONT DE MONTEOLIVET,39.45212425996457,-0.3661854292554278
2025-06-17T11:01:43.964131,463.0,0,CAMI CANAL D'EIXIDA,39.451224433666624,-0.3352885564004821
2025-06-17T11:01:43.964131,71.0,0,JESUS,39.46471113072391,-0.3847164550511613
2025-06-17T11:01:43.964131,226.0,0,PAS INFERIOR GERMANIES CAP A MARQUES DEL TURIA,39.46363447407997,-0.3784816939565296
2025-06-17T11:01:43.964131,22.0,0,PERIS I VALERO CAP A AUSIAS MARCH,39.46015865201508,-0.3683299704830048
2025-06-17T11:01:43.964131,15.0,0,PESET ALEIXANDRE CAP A GRAL. AVILES,39.49090780797097,-0.3796593905451595
2025-06-17T11:01:43.964131,148.0,0,PRIMAT REIG (DES DE BILBAO A CAVANILLES),39.4872957644926,-0.3676029911914943
2025-06-17T11:01:43.964131,18.0,0,GIORGETA CAP A PEREZ GALDOS,39.46020324461217,-0.3851281539281749
2025-06-17T11:01:43.964131,32.0,0,RAMÓN Y CAJAL HACIA PLAZA ESPAÑA,39.46734459544216,-0.3830985880655649
2025-06-17T11:01:43.964131,8.0,0,SANT VICENT (DES DE GIORGETA A TOMAS SALA),39.4520865758401,-0.3848707077564342
2025-06-17T11:01:43.964131,75.0,0,PONT DE LA TRINITAT,39.478987564606655,-0.3727166397618602
2025-06-17T11:01:43.964131,12.0,0,CAVANILLES,39.481953311371285,-0.365175252309093
2025-06-17T11:01:43.964131,31.0,0,CARDENAL BENLLOCH CAP A EDUARD BOSCA,39.4711826680422,-0.354593824664203
2025-06-17T11:01:43.964131,150.0,0,PRIMADO REIG (DE CATALUÑA A EMILIO BARÓ),39.48122239683984,-0.3591387128407713
2025-06-17T11:01:43.964131,162.0,0,PASO INFERIOR DE PESET ALEIXANDRE HACIA P. REIG,39.49136059681516,-0.3741462437311332
2025-06-17T11:01:43.964131,33.0,0,CAMINO DE MONCADA (DE HNOS. MACHADO A POBLE NOU),39.50025436358964,-0.381015723412841
2025-06-17T11:01:43.964131,73.0,0,MEDITERRÁNEO (DE E.VIÑES A PROGRESO),39.467661674315146,-0.3278385971868722
2025-06-17T11:01:43.964131,94.0,0,TRES FORQUES (DE PÉREZ GALDÓS A TRES CRUCES),39.46398057803403,-0.3968197832857982
2025-06-17T11:01:43.964131,202.0,0,GENERAL AVILÉS (DE PÍO BAROJA A MTRO. RODRIGO),39.482149106135566,-0.4043126880830821
2025-06-17T11:01:43.964131,35.0,0,MENÉNDEZ PIDAL,39.47969970306072,-0.3888641582347716
2025-06-17T11:01:43.964131,231.0,0,LUIS PEIXÓ - BLAS DE LEZO HACIA BLASCO IBAÑEZ,39.47324863614024,-0.3340628928800406
2025-06-17T11:01:43.964131,281.0,0,CORTES VALENCIANAS (DE LA SAFOR A CAMP DE TURIA),39.49249268622793,-0.400828746173032
2025-06-17T11:01:43.964131,60.0,0,MATÍAS PERELLÓ - CENTELLES,39.46097641659705,-0.3689944173408517
2025-06-17T11:01:43.964131,10.0,0,INSTITUTO OBRERO HACIA PROF. LÓPEZ PIÑERO,39.455217283595815,-0.3587598525693126
2025-06-17T11:01:43.964131,312.0,0,PASO INFERIOR BLANQUERÍAS,39.48050604980939,-0.3825243441712401
2025-06-17T11:01:43.964131,229.0,0,SERRERÍA HACIA AV. DEL PUERTO,39.46544050988979,-0.3360976495976194
2025-06-17T11:01:43.964131,237.0,0,PUENTE MONTEOLIVETE HACIA INST. OBRERO,39.45806521563285,-0.3546116399051968
2025-06-17T11:01:43.964131,263.0,0,NARANJOS (DE DR. LLUCH A LUIS PEIXO),39.47562391565186,-0.3303450840519455
2025-06-17T11:01:43.964131,5.0,0,ISLAS CANARIAS (DE MANUEL CANDELA A E.BOSCÁ),39.46591570779275,-0.354106983595753
2025-06-17T11:01:43.964131,219.0,0,CONSTITUCIÓN (DE PRIMADO REIG A HNOS. MACHADO),39.4949272398524,-0.3719424501853058
2025-06-17T11:01:43.964131,6.0,0,SAN VICENTE (DE GIORGETA A PLAZA ESPAÑA),39.46155308089947,-0.3825187124490699
2025-06-17T11:01:43.964131,211.0,0,HNOS. MACHADO HACIA V-21 (DE JUAN XXIII A ALFAHUIR),39.49885414210864,-0.3790485711073229
2025-06-17T11:01:43.964131,51.0,0,SAN VICENTE (DE SAN AGUSTIN A MªCRISTINA),39.47049109929769,-0.3781126804996607
2025-06-17T11:01:43.964131,106.0,0,PÍO BAROJA (DE MANUEL DE FALLA A GENERAL AVILÉS),39.47753610928306,-0.4063526118905359
2025-06-17T11:01:43.964131,39.0,0,PLAZA AMÉRICA HACIA NAVARRO REVERTER,39.46972984994812,-0.3645844412809193
2025-06-17T11:01:43.964131,127.0,0,GENERAL PALANCA,39.47298264684471,-0.3690544536203106
2025-06-17T11:01:43.964131,128.0,0,VÍA DE SERVICIO DE LA ALAMEDA (DE A.PALACIO VALDÉS A LLANO DEL REAL),39.475431390122935,-0.3654384718486377
2025-06-17T11:01:43.964131,9.0,0,INSTITUTO OBRERO HACIA AUSIAS MARCH,39.45535179169036,-0.3588443923912916
2025-06-17T11:01:43.964131,210.0,0,CAMINO MONCADA (DE HNOS. MACHADO A PESET ALEIXANDRE),39.49469246801522,-0.3803315511096723
2025-06-17T11:01:43.964131,224.0,0,AV. DEL LEVANTE (DE JUAN XXIII A ECUADOR),39.49600701228911,-0.388990752662194
2025-06-17T11:01:43.964131,192.0,0,PASO INFERIOR PROFESOR LÓPEZ PIÑERO DE SALIDA,39.45450938502522,-0.3537327913242484
2025-06-17T11:01:43.964131,246.0,0,PASEO DE LA ALAMEDA (DE MENORCA A T. DE MONTAÑANA),39.45810232395041,-0.3506473710926548
2025-06-17T11:01:43.964131,212.0,0,PASO INFERIOR HNOS. MACHADO HACIA ALFAHUIR,39.49798573460413,-0.3702102730991738
2025-06-17T11:01:43.964131,42.0,0,PLAZA DE TETUÁN,39.4745327720676,-0.3697014979876845
2025-06-17T11:01:43.964131,228.0,0,NARANJOS (DE LUIS PEIXÓ A V-21),39.47908125889863,-0.3420016398693832
2025-06-17T11:01:43.964131,174.0,0,PLAZA AMERICA HACIA MARQUÉS DEL TURIA,39.46969738552812,-0.3649160859247743
2025-06-17T11:01:43.964131,240.0,0,CAMPANAR (DE PÍO XII A TIRSO DE MOLINA),39.47928470780767,-0.394035035428453
2025-06-17T11:01:43.964131,133.0,0,MURILLO (DE MORO ZEIT A GUILLEM DE CASTRO),39.47530031628075,-0.3823748493308898
2025-06-17T11:01:43.964131,370.0,0,PASEO DE LA ALAMEDA (DE PUENTE DEL REINO A E. BOSCÁ),39.46264281388426,-0.357497969167262
2025-06-17T11:01:43.964131,347.0,0,VÍA DE SERVICIO DE AV. DEL CID (DE MISERICORDIA A TRES CRUCES),39.46965503615043,-0.4082987874234031
2025-06-17T11:01:43.964131,363.0,0,BURJASOT (DE LLANO DE ZAIDÍA A PESET ALEIXANDRE),39.48547522744831,-0.3857089358942444
2025-06-17T11:01:43.964131,275.0,0,PUENTE DEL ASSUT DE L'OR HACIA ANTONIO FERRANDIS,39.45485442631336,-0.3497590212396274
2025-06-17T11:01:43.964131,366.0,0,REINO DE VALENCIA (DE PERIS Y VALERO A MARQUÉS DEL TURIA),39.46401359624874,-0.3686904221817236
2025-06-17T11:01:43.964131,299.0,0,PUENTE DE ARAGÓN HACIA MARQUÉS DEL TURIA,39.468937292098005,-0.362680064031966
2025-06-17T11:01:43.964131,303.0,0,PUENTE MONTEOLIVETE HACIA TOMÁS DE MONTAÑANA,39.45793834004967,-0.3543789195569941
2025-06-17T11:01:43.964131,333.0,0,PUENTE DE MADERA,39.47975413611472,-0.3742414102528277
2025-06-17T11:01:43.964131,367.0,0,REINO DE VALENCIA (DE ALCALDE REIG A PERIS Y VALERO),39.46241515611082,-0.3614238470412221
2025-06-17T11:01:43.964131,244.0,0,J. J. DOMINE HACIA PLAZA ARMADA ESPAÑOLA,39.461536487769465,-0.3310424232744407
2025-06-17T11:01:43.964131,286.0,0,PASO INFERIOR Cº MONCADA DE ENTRADA,39.49856053333255,-0.3813507697239426
2025-06-17T11:01:43.964131,300.0,0,PUENTE DE ARAGÓN HACIA ARAGÓN,39.46877300256344,-0.3626226627228631
2025-06-17T11:01:43.964131,320.0,0,CNO. NUEVO DE PICAÑA HACIA CV-36,39.45603702776044,-0.4048984497125589
2025-06-17T11:01:43.964131,242.0,0,PÍO BAROJA (DE GENERAL AVILÉS A LA SAFOR),39.4843975124141,-0.4059449445561893
2025-06-17T11:01:43.964131,302.0,0,PUENTE DEL ÁNGEL CUSTODIO HACIA E. BOSCÁ?,39.46333248327524,-0.3597921612460537
2025-06-17T11:01:43.964131,329.0,0,PASEO DE LA ALAMEDA (DE PLAZA ZARAGOZA A PUENTE DE LAS FLORES),39.47049233886038,-0.362062196139134
2025-06-17T11:01:43.964131,291.0,0,VALLE DE LA BALLESTERA (DE PÍO BAROJA A MTRO. RODRIGO),39.478430874586806,-0.4024150937620595
2025-06-17T11:01:43.964131,378.0,0,PUERTO (DE PLAZA ZARAGOZA A EDUARDO BOSCÁ),39.46760684679235,-0.3584109650163375
2025-06-17T11:01:43.964131,346.0,0,PUENTE DE LAS GLORIAS VALENCIANAS HACIA PÍO XII,39.47816966743624,-0.3905015846325826
2025-06-17T11:01:43.964131,306.0,0,PASO INFERIOR Cº MONCADA DE SALIDA,39.49856058358536,-0.3812334861821671
2025-06-17T11:01:43.964131,319.0,0,AUTOPISTA DEL SALER LATERAL DE ENTRADA,39.45186884182124,-0.3499863168713222
2025-06-17T11:01:43.964131,284.0,0,VÍA DE SERVICIO DE V-21 A HNOS. MACHADO,39.48281925224617,-0.3499382492252439
2025-06-17T11:01:43.964131,310.0,0,PASO INFERIOR GUILLEM DE CASTRO - ANGEL GUIMERA,39.46998681858699,-0.3834979133675545
2025-06-17T11:01:43.964131,376.0,0,TRES CRUCES (DE ARCHIDUQUE CARLOS A TRES FORQUES),39.460910164194125,-0.4040614801418126
2025-06-17T11:01:43.964131,343.0,0,CV-36 SENTIDO SALIDA,39.452186716004974,-0.4099427388451975
2025-06-17T11:01:43.964131,294.0,0,PUENTE NUEVE DE OCTUBRE HACIA AV. DEL CID,39.47384123490917,-0.4059728284741708
2025-06-17T11:01:43.964131,375.0,0,VALLE DE LA BALLESTERA (DE PÍO XII A M. RODRIGO),39.480166092259495,-0.3959163153417225
2025-06-17T11:01:43.964131,366.0,0,REINO DE VALENCIA (DE PERIS Y VALERO A MARQUÉS DEL TURIA),39.46284326028832,-0.3633024560258012
2025-06-17T11:01:43.964131,379.0,0,PUERTO (DE EDUARDO BOSCÁ A M. CANDELA),39.46629135620313,-0.3539030936853039
2025-06-17T11:01:43.964131,,0,,,
2025-06-17T11:01:43.964131,429.0,0,MARGINAL DERECHA POR SUPERFICIE (DE FDO. CATÓLICO A PTE DE SAN JOSÉ),39.47931270436835,-0.3850631527248939
2025-06-17T11:01:43.964131,413.0,0,FDO. ABRIL MARTORELL (DE MALILLA A AUSIAS MARCH),39.4451289829324,-0.3766919771898713
2025-06-17T11:01:43.964131,62.0,0,NAVARRO REVERTER,39.47119420394635,-0.366783302527304
2025-06-17T11:01:43.964131,439.0,0,MARQUÉS DE SOTELO (DE AYUNTAMIENTO A XÀTIVA),39.46845858997136,-0.3770431737875035
2025-06-17T11:01:43.964131,181.0,0,TOMAS SALA (DE CARTEROS A SAN VICENTE),39.4467647137248,-0.3880438719820765
2025-06-17T11:01:43.964131,361.0,0,GENERAL ELIO HACIA BLASCO IBAÑEZ,39.47812430443116,-0.3668350697298716
2025-06-17T11:01:43.964131,409.0,0,CARTEROS HACIA CENTRO CIUDAD,39.45032712740743,-0.3890203058356016
2025-06-17T11:01:43.964131,396.0,0,CONSTITUCIÓN (DESDE REUS HASTA LLANO DE ZAIDÍA),39.48437560763236,-0.3787248453420189
2025-06-17T11:01:43.964131,178.0,0,PÍO BAROJA (DE GRAL. AVILÉS A MANUEL DE FALLA),39.47750695112613,-0.4067807845081923
2025-06-17T11:01:43.964131,431.0,0,VÍA DE SERVICIO DE CORTES VALENCIANAS A GRAL. AVILÉS,39.48732737567816,-0.3975306316029708
2025-06-17T11:01:43.964131,390.0,0,PASEO PECHINA (DE PÉREZ GALDÓS A PUENTE DE LAS GLORIAS VALENCIANAS),39.47626046381694,-0.3930551309870405
2025-06-17T11:01:43.964131,400.0,0,PÍO BAROJA (DE LA SAFOR A GRAL. AVILÉS),39.48449046182487,-0.4064106657167105
2025-06-17T11:01:43.964131,387.0,0,VÍA DE SERVICIO PASO INFERIOR DE PRIMADO REIG A PESET ALEIXANDRE,39.49157035262865,-0.3740825068238083
2025-06-17T11:01:43.964131,425.0,0,CAMPANAR (DE PÍO XII A PESET ALEIXANDRE),39.48491726275936,-0.3911664360417852
2025-06-17T11:01:43.964131,405.0,0,MALILLA HACIA FDO. ABRIL MARTORELL,39.44951283939736,-0.3795038174482866
2025-06-17T11:01:43.964131,176.0,0,FDO. ABRIL MARTORELL (DE SAN VICENTE A CRA. MALILLA),39.44576653799489,-0.3832474462230629
2025-06-17T11:01:43.964131,97.0,0,POETA QUEROL,39.47163488155354,-0.3742871583535577
2025-06-17T11:01:43.964131,444.0,0,VÍA DE SERVICIO PASO INFERIOR DE PÉREZ GALDÓS (DE CUENCA A ÁNGEL GUIMERÁ),39.46701869643494,-0.3898590907726856
2025-06-17T11:01:43.964131,264.0,0,REINA,39.46537586206394,-0.3291408457288411
2025-06-17T11:01:43.964131,252.0,0,ANTONIO FERRANDIS HACIA AUT. DEL SALER,39.450344671692704,-0.3583397038117746
2025-06-17T11:01:43.964131,325.0,0,INGENIERO FAUSTO ELIO HACIA V-21,39.48047814427888,-0.3324544674407446
2025-06-17T11:01:43.964131,63.0,0,CIUDADELA,39.47311193454182,-0.3672553947991724
2025-06-17T11:01:43.964131,395.0,0,AV. DEL CID (DE TRES CRUCES A PÉREZ GALDÓS),39.468112090537865,-0.3966164424766375
2025-06-17T11:01:43.964131,336.0,0,MARIA CRISTINA,39.47316923167749,-0.3776689569650144
2025-06-17T11:01:43.964131,64.0,0,SANT PIUS V - TRINITAT - GUADALAVIAR - PLA DE LA ZAIDIA,39.48085005512735,-0.3747007215744435
2025-06-17T11:01:43.964131,167.0,0,AV. DE LA PLATA HACIA ALCALDE REIG,39.45568128680804,-0.3653647715345788
2025-06-17T11:01:43.964131,30.0,0,FERRAN EL CATOLIC CAP A PONT DE LAS GLORIES VALENCIANES,39.47337918990487,-0.3869954399904819
2025-06-17T11:01:43.964131,34.0,0,EDUARD BOSCA CAP A PONT DE L'ANGEL CUSTODI),39.4656117497048,-0.3573179424577763
2025-06-17T11:01:43.964131,465.0,0,CARRERA RIU CAP A CAMI DE LES MORERES,39.44970728284488,-0.3413007256774262
2025-06-17T11:01:43.964131,61.0,0,JACINTO BENAVENTE CAP A PL. AMERICA,39.46609508106435,-0.3622419285909812
2025-06-17T11:01:43.964131,4.0,0,ISLAS CANARIAS (DE IBIZA A MANUEL CANDELA),39.4632427268843,-0.3454451687978451
2025-06-17T11:01:43.964131,1.0,0,AV. CATALUNYA D'ENTRADA,39.47731514267513,-0.3552431580651913
2025-06-17T11:01:43.964131,70.0,0,GASPAR AGUILAR CAP A TRES CREUS,39.454808254070365,-0.3915116906143555
2025-06-17T11:01:43.964131,195.0,0,JÁTIVA,39.46764137085383,-0.3773606558463213
2025-06-17T11:01:43.964131,92.0,0,CATALUÑA DE SALIDA,39.47863372728918,-0.354195698254861
2025-06-17T11:01:43.964131,460.0,0,CONSTITUCIO (DES DE PL. DON BOSCO HASTA REUS),39.488686172339,-0.3763709546859589
2025-06-17T11:01:43.964131,85.0,0,ALCALDE REIG CAP A AV. DE LA PLATA,39.46087571601335,-0.3597287311570971
2025-06-17T11:01:43.964131,457.0,0,GASPAR AGUILAR (DES DE TRES CREUS A JAIME BELTRAN),39.45317459616689,-0.3924498904490414
2025-06-17T11:01:43.964131,52.0,0,PAZ (DE GENERAL TOVAR A MARQUÉS DE DOS AGUAS),39.473133523407725,-0.3721785803625675
2025-06-17T11:01:43.964131,163.0,0,PASO INFERIOR DE PRIMADO REIG HACIA P. ALEIXANDRE,39.49147617824265,-0.3741130432952335
2025-06-17T11:01:43.964131,21.0,0,PERIS I VALERO CAP A EDUARD BOSCA,39.46002009631136,-0.3682482342060647
2025-06-17T11:01:43.964131,383.0,0,MAURO GUILLEN,39.4823164353276,-0.3829941269357674
2025-06-17T11:01:43.964131,24.0,0,FERRAN EL CATOLIC CAP A RAMON Y CAJAL,39.47314308935048,-0.387245153054106
2025-06-17T11:01:43.964131,461.0,0,CAMI DE LES MORERES CAP A PONT DE LES DRASSANES,39.45194083591484,-0.3381103925496891
2025-06-17T11:01:43.964131,198.0,0,MENORCA HACIA AV. DEL PUERTO,39.45898586546679,-0.3429000296819002
2025-06-17T11:01:43.964131,454.0,0,FILIPINES CAP A AUSIAS MARCH,39.45905913188072,-0.3775439378957132
2025-06-17T11:01:43.964131,211.0,0,HNOS. MACHADO HACIA V-21 (DE JUAN XXIII A ALFAHUIR),39.49580390436169,-0.362598303484632
2025-06-17T11:01:43.964131,130.0,0,GERMANIES CAP A PAS INFERIOR,39.46464090115677,-0.3746382035114293
2025-06-17T11:01:43.964131,17.0,0,PEREZ GALDOS CAP A GIORGETA (SENSE P.I. NI VIA DE SERVICI),39.46352595905256,-0.3877166233324279
2025-06-17T11:01:43.964131,59.0,0,ARAGON CAP A PL. SARAGOSSA,39.472305838035325,-0.3580524514681745
2025-06-17T11:01:43.964131,453.0,0,CLARIANO D'ENTRADA,39.47812446802767,-0.3517237469004032
2025-06-17T11:01:43.964131,110.0,0,TRES FORQUES (DE TRES CRUCES A V-30),39.46342845096234,-0.4097899726383384
2025-06-17T11:01:43.964131,165.0,0,PASO INFERIOR DE GRAL. AVILES HACIA PESET ALEIXANDRE,39.488910653701744,-0.3875449968013313
2025-06-17T11:01:43.964131,158.0,0,RUSSAFA,39.46610658459192,-0.3744097126956417
2025-06-17T11:01:43.964131,464.0,0,CAMI CANAL CAP A CAMI DE LES MORERES,39.45120962240931,-0.3351366587810425
2025-06-17T11:01:43.964131,19.0,0,PASO ELEVADO HACIA GIORGETA,39.45605895949036,-0.3798385764620142
2025-06-17T11:01:43.964131,473.0,0,QUEVEDO (DES D'AV. DE L'OEST FINS A GUILLEM DE CASTRO),39.469688687581815,-0.3804663139028387
2025-06-17T11:01:43.964131,203.0,0,VALLE DE LA BALLESTERA (DE MTRO. RODRIGO A PÍO BAROJA),39.47856243431591,-0.40250057766885
2025-06-17T11:01:43.964131,183.0,0,MAESTRO RODRIGO (DE GRAL. AVILES A CAMP DE TURIA),39.48767471880555,-0.4047716614257841
2025-06-17T11:01:43.964131,216.0,0,HNOS. MACHADO (DE ALFAHUIR A JUAN XXIII),39.49593060737096,-0.3625186682472364
2025-06-17T11:01:43.964131,268.0,0,J.J. DOMINE (DE PLAZA ARMADA ESPAÑOLA A AV. DEL PUERTO),39.46158867101104,-0.3313205627963092
2025-06-17T11:01:43.964131,182.0,0,SAGUNTO (DE PLAZA STA. MÓNICA A RUAYA),39.48354663572393,-0.3748765605707302
2025-06-17T11:01:43.964131,191.0,0,CNO. NUEVO DE PICAÑA HACIA TRES CRUCES,39.455810098231325,-0.4048654826848303
2025-06-17T11:01:43.964131,273.0,0,TRES FORQUES (DE V-30 A TRES CRUCES),39.46309857316689,-0.4104504457783257
2025-06-17T11:01:43.964131,250.0,0,CAMP DE TURIA (DE CORTES VALENCIANAS A MAESTRO RODRIGO),39.49347929539715,-0.4055346538091611
2025-06-17T11:01:43.964131,164.0,0,PASO INFERIOR DE PESET ALEIXANDRE HACIA GRAL. AVILÉS,39.48901307584632,-0.3875911945121433
2025-06-17T11:01:43.964131,159.0,0,PASEO DE LA ALAMEDA (DE EDUARDO BOSCA A PLAZA ZARAGOZA),39.46621849990404,-0.359590959840407
2025-06-17T11:01:43.964131,7.0,0,SAN VICENTE (DE PLAZA DE ESPAÑA A S. AGUSTIN),39.46693258567546,-0.3807526234201581
2025-06-17T11:01:43.964131,220.0,0,BLASCO IBAÑEZ (DE VIVEROS A ARAGÓN),39.47753740893947,-0.3612271879361789
2025-06-17T11:01:43.964131,316.0,0,PASO INFERIOR MENÉNDEZ PIDAL - TIRSO DE MOLINA,39.47876727945811,-0.3912149908481621
2025-06-17T11:01:43.964131,138.0,0,PADRE FERRIS HACIA JOAQUÍN BALLESTER,39.48264313042661,-0.3844905026851499
2025-06-17T11:01:43.964131,251.0,0,FRANCIA (DE T. DE MONTAÑANA A MENORCA),39.45938059737638,-0.3484934917944202
2025-06-17T11:01:43.964131,188.0,0,PROFESOR LÓPEZ PIÑERO DE ENTRADA,39.45605223735216,-0.3549979124606588
2025-06-17T11:01:43.964131,137.0,0,PÍO XII DE ENTRADA (DE SALIDA DEL PASO INFERIOR A CAMPANAR),39.48212735411087,-0.3936336609440235
2025-06-17T11:01:43.964131,269.0,0,ING. MANUEL SOTO (DE PUENTE DE ASTILLEROS A J.J. DOMINE),39.45680107403567,-0.3310891508988189
2025-06-17T11:01:43.964131,209.0,0,JUAN XXIII HACIA PESET ALEIXANDRE,39.49388887995795,-0.3836008708471451
2025-06-17T11:01:43.964131,216.0,0,HNOS. MACHADO (DE ALFAHUIR A JUAN XXIII),39.49900055560726,-0.379060942841344
2025-06-17T11:01:43.964131,146.0,0,FILIPINAS HACIA GERMANÍAS,39.45959026228514,-0.377521610433715
2025-06-17T11:01:43.964131,261.0,0,NARANJOS (DE CATALUÑA A RAMÓN LLULL),39.48048050632357,-0.347954269435648
2025-06-17T11:01:43.964131,272.0,0,S. VICENTE MÁRTIR (DE ARZOBISPO OLAECHEA A FDO. ABRIL MARTORELL),39.44472523908793,-0.3869383784401919
2025-06-17T11:01:43.964131,82.0,0,ARCHIDUQUE CARLOS HACIA TRES FORQUES,39.46117323611077,-0.3989635639709
2025-06-17T11:01:43.964131,147.0,0,QUART (DE GUILLEM DE CASTRO A FDO. CATÓLICO),39.475425280311576,-0.3861753240502523
2025-06-17T11:01:43.964131,218.0,0,ALFAHUIR HACIA HNOS. MACHADO,39.49084261445285,-0.363040185813557
2025-06-17T11:01:43.964131,172.0,0,PUENTE DE LAS FLORES,39.471127589008894,-0.364171616666134
2025-06-17T11:01:43.964131,149.0,0,PRIMADO REIG (DE CAVANILLES A CATALUÑA),39.48137828987718,-0.3596623298792458
2025-06-17T11:01:43.964131,283.0,0,AUTOPISTA DEL SALER LATERAL DE SALIDA,39.45169104197456,-0.3508271616125331
2025-06-17T11:01:43.964131,186.0,0,SAN VICENTE (DE FDO. ABRIL MARTORELL A GIORGETA),39.45200770690512,-0.3847481733887977
2025-06-17T11:01:43.964131,232.0,0,BALEARES (DE MENORCA A E. BOSCÁ),39.46160676420583,-0.3500556731155977
2025-06-17T11:01:43.964131,44.0,0,PAVÍA (DE MEDITERRÁNEO A HISTORIADOR COLOMA),39.46898963038943,-0.3248170018777049
2025-06-17T11:01:43.964131,215.0,0,CAMINO MONCADA (DE PESET ALEIXANDRE A HNOS. MACHADO),39.49472467041672,-0.3801236876521357
2025-06-17T11:01:43.964131,168.0,0,NICASIO BENLLOCH,39.49214199753694,-0.3964780855525451
2025-06-17T11:01:43.964131,58.0,0,ARAGÓN HACIA BLASCO IBAÑEZ,39.47193460727437,-0.357598604875885
2025-06-17T11:01:43.964131,57.0,0,PROFESOR LÓPEZ PIÑERO (DE AV. DE LA PLATA A A. FERRANDIS),39.45577098044626,-0.3554912137931741
2025-06-17T11:01:43.964131,140.0,0,CUENCA (DE PÉREZ GALDÓS A ALBERIQUE),39.46502496790791,-0.3876687169230368
2025-06-17T11:01:43.964131,41.0,0,RAMÓN LLULL HACIA BLASCO IBÁÑEZ,39.47696724605518,-0.3466945617450562
2025-06-17T11:01:43.964131,38.0,0,COLÓN,39.46943446920381,-0.3716571903402729
2025-06-17T11:01:43.964131,335.0,0,PLAÇA DEL AJUNTAMENT,39.46971965385164,-0.3763303779920934
2025-06-17T11:01:43.964131,315.0,0,PASO INFERIOR MAURO GUILLÉN - MENÉNDEZ PIDAL,39.48151084376852,-0.3844963781153191
2025-06-17T11:01:43.964131,313.0,0,PASO INFERIOR ANTONIO FERRANDIS HACIA TRES CRUCES,39.44607768893405,-0.3692741522244184
2025-06-17T11:01:43.964131,342.0,0,V-21 SENTIDO SALIDA,39.48510296774502,-0.345684702573397
2025-06-17T11:01:43.964131,340.0,0,CV-500 SENTIDO SALIDA,39.44813754814106,-0.3461740945841026
2025-06-17T11:01:43.964131,258.0,0,ACCESO DESDE CV-30 A MAESTRO RODRIGO,39.49649690452708,-0.408613522920885
2025-06-17T11:01:43.964131,318.0,0,AUSIAS MARCH DE SALIDA,39.45163323306639,-0.3722098974474225
2025-06-17T11:01:43.964131,403.0,0,MENORCA HACIA ALAMEDA,39.45924939652225,-0.3428513765563654
2025-06-17T11:01:43.964131,289.0,0,PUENTE REINO DE VALENCIA HACIA ALCALDE REIG,39.46190176696173,-0.3590870960399089
2025-06-17T11:01:43.964131,359.0,0,CONDE TRÉNOR - PINTOR LÓPEZ,39.47785421822949,-0.3726998270480477
2025-06-17T11:01:43.964131,314.0,0,PASO INFERIOR ANTONIO FERRANDIS HACIA AUT. DEL SALER,39.44596883311371,-0.369250910338958
2025-06-17T11:01:43.964131,371.0,0,PASEO DE LA ALAMEDA (DE E. BOSCÁ A PUENTE DEL REINO),39.46257849954368,-0.358251226601514
2025-06-17T11:01:43.964131,270.0,0,PASEO DE LA ALAMEDA (DE PLAZA ZARAGOZA A EDUARDO BOSCA),39.46615596173048,-0.3598560806062669
2025-06-17T11:01:43.964131,298.0,0,PUENTE DE LAS ARTES HACIA GUILLEM DE CASTRO,39.48095611147806,-0.383725505597495
2025-06-17T11:01:43.964131,380.0,0,PUERTO (DE M. CANDELA A SERRERÍA),39.46364832036867,-0.3450146004525268
2025-06-17T11:01:43.964131,369.0,0,FRANCIA (DE TOMÁS DE MONTAÑANA A PUENTE DEL REINO),39.46110620430628,-0.3551855369671892
2025-06-17T11:01:43.964131,357.0,0,PADRE FERRIS HACIA PUENTE DE LAS ARTES,39.48321537350229,-0.3850574255050326
2025-06-17T11:01:43.964131,245.0,0,AV. DEL PUERTO (DE SERRERÍA A J.J. DÓMINE),39.46091314855906,-0.3358367359904664
2025-06-17T11:01:43.964131,341.0,0,AUSIAS MARCH (DE A. FERRANDIS A V-31),39.43975126356118,-0.3697926891803798
2025-06-17T11:01:43.964131,279.0,0,PIO XII (DE MENÉNDEZ PIDAL A JOAQUIN BALLESTER),39.480122244920096,-0.3918575603876175
2025-06-17T11:01:43.964131,257.0,0,HERMANOS MACHADO (DE CV-30 A AV. DEL LEVANTE),39.49993704273264,-0.3889298764648512
2025-06-17T11:01:43.964131,265.0,0,EUGENIA VIÑES (DE MEDITERRÁNEO A MARCOS SOPENA),39.465398712889126,-0.3249492582570883
2025-06-17T11:01:43.964131,322.0,0,PUENTE DE GLORIAS VALENCIANAS HACIA FERNANDO EL CATOLICO,39.47810852422073,-0.390682101722769
2025-06-17T11:01:43.964131,311.0,0,PASO INFERIOR PECHINA,39.47660890420897,-0.3923367456160742
2025-06-17T11:01:43.964131,351.0,0,BURJASSOT (DE PESET ALEIXANDRE A BENICALAP),39.493816035643256,-0.3948778069711774
2025-06-17T11:01:43.964131,301.0,0,PUENTE DEL ÁNGEL CUSTODIO HACIA P. Y VALERO,39.463501321998486,-0.3598562314192138
2025-06-17T11:01:43.964131,304.0,0,PUENTE ASTILLEROS HACIA CNO. MORERAS,39.45333508839178,-0.3316654660895012
2025-06-17T11:01:43.964131,238.0,0,LINARES,39.46864425071652,-0.3935320251372186
2025-06-17T11:01:43.964131,295.0,0,PUENTE NUEVE DE OCTUBRE HACIA PÍO BAROJA,39.47390102680201,-0.4056094340961471
2025-06-17T11:01:43.964131,271.0,0,S. VICENTE MARTIR (DE TOMAS SALA A ARZOBISPO OLAECHEA),39.44473772959272,-0.3870885591398186
2025-06-17T11:01:43.964131,308.0,0,PASO INFERIOR PÉREZ GALDÓS HACIA MTRO. RODRIGO,39.46802902125431,-0.3907429038315824
2025-06-17T11:01:43.964131,365.0,0,REINO DE VALENCIA (DE PERIS Y VALERO A ALCALDE REIG),39.46224477553304,-0.3615220247649102
2025-06-17T11:01:43.964131,323.0,0,RAMÓN LLULL HACIA NARANJOS,39.47690434346718,-0.3464559138311304
2025-06-17T11:01:43.964131,441.0,0,PAZ (DE MARQUÉS DE DOS AGUAS A PL. DE LA REINA),39.473669952522194,-0.3748654164676566
2025-06-17T11:01:43.964131,,0,,,
2025-06-17T11:01:43.964131,,0,,,
2025-06-17T11:01:43.964131,432.0,0,GENERAL AVILÉS (DE PASO INFERIOR A PÍO XII),39.4867052797197,-0.3942443619682079
2025-06-17T11:01:43.964131,476.0,0,PASO INFERIOR DE TRES FORQUES HACIA ROS CASARES,39.46286764318744,-0.4137119423012736
2025-06-17T11:01:43.964131,327.0,0,EDUARDO PRIMO YÚFERA HACIA PUENTE DE L'ASSUT DE L'OR,39.452053101822735,-0.3465761336415356
2025-06-17T11:01:43.964131,427.0,0,ISLAS CANARIAS (DE EDUARDO BOSCÁ A ALAMEDA),39.46695290265876,-0.3584567186553126
2025-06-17T11:01:43.964131,406.0,0,FDO. ABRIL MARTORELL (DE MALILLA A SAN VICENTE),39.44596239871689,-0.3832079554702974
2025-06-17T11:01:43.964131,418.0,0,TRES CRUCES (DE CNO. NUEVO DE PICAÑA A GASPAR AGUILAR),39.453374969209285,-0.3991459661637182
2025-06-17T11:01:43.964131,151.0,0,PRIMADO REIG (DE EMILIO BARÓ A SAN VICENTE PAUL),39.48710451237888,-0.3670615422895449
2025-06-17T11:01:43.964131,422.0,0,BLASCO IBAÑEZ (DE ARAGÓN A CARDENAL BENLLOCH),39.47567158968992,-0.3539951342629055
2025-06-17T11:01:43.964131,423.0,0,BLASCO IBAÑEZ (DE CARDENAL BENLLOCH A M. CANDELA),39.474557941478025,-0.3502246095292907
2025-06-17T11:01:43.964131,417.0,0,TRES CRUCES (DE GASPAR AGUILAR A ARCHIDUQUE CARLOS),39.453611717126,-0.3987680097654719
2025-06-17T11:01:43.964131,180.0,0,TOMAS SALA (DE CARTEROS A GASPAR AGUILAR),39.4482869158909,-0.3924621093056719
2025-06-17T11:01:43.964131,411.0,0,TOMAS SALA (DE GASPAR AGUILAR A CARTEROS),39.448156036623786,-0.3925373883493013
2025-06-17T11:01:43.964131,446.0,0,LLANO DE ZAIDÍA (DE PUENTE DE LAS ARTES A POETA MONMENEU),39.48257278091984,-0.3805911774634692
2025-06-17T11:01:43.964131,386.0,0,VÍA DE SERVICIO PASO INFERIOR DE PESET ALEIXANDRE A GENERAL AVILÉS,39.489463878974846,-0.3865141319017113
2025-06-17T11:01:43.964131,256.0,0,HERMANOS MACHADO (DE AV. DEL LEVANTE A CV-30),39.500077494179685,-0.38874408615853
2025-06-17T11:01:43.964131,447.0,0,GUADALAVIAR (DE POETA MONMENEU A PUENTE DE MADERA),39.48161524343882,-0.3754118026719585
2025-06-17T11:01:43.964131,401.0,0,VÍA DE SERVICIO DE GENERAL AVILÉS A LA SAFOR,39.48804165531472,-0.3973396445404435
2025-06-17T11:01:43.964131,430.0,0,VÍA DE SERVICIO DE PÍO XII A GRAL. AVILÉS,39.48436346882107,-0.3947308677880029
2025-06-17T11:01:43.964131,393.0,0,PASO INFERIOR AV. DEL CID HACIA PÉREZ GALDÓS,39.46968578972779,-0.4059148701576997
2025-06-17T11:01:43.964131,419.0,0,BLASCO IBAÑEZ (DE SERRERÍA A RAMÓN LLULL),39.47232645393236,-0.341083687543454
2025-06-17T11:01:43.964131,389.0,0,PASEO PECHINA (DE NUEVE DE OCTUBRE A PÉREZ GALDÓS),39.47395317064126,-0.4005208754220298
2025-06-17T11:01:43.964131,105.0,0,TRES FORQUES (DE TRES CRUCES A PÉREZ GALDÓS),39.4638529172053,-0.3968074558524354
2025-06-17T11:04:44.751587,166.0,0,AV. DE LA PLATA HACIA AUSIAS MARCH,39.45584475548337,-0.3654706314265538
2025-06-17T11:04:44.751587,189.0,0,ACCESO DESDE A-3 A AV. DEL CID,39.46919623973966,-0.4182334761592123
2025-06-17T11:04:44.751587,459.0,0,VIA DE SERVEI D'ANTONIO FERRANDIS CAP A AUTOPISTA DEL SALER,39.4470633349177,-0.3661715041757855
2025-06-17T11:04:44.751587,404.0,0,MALILLA CAP A CENTRE CIUTAT,39.449467674314754,-0.3792896877235342
2025-06-17T11:04:44.751587,2.0,0,CLARIANO D´EIXIDA,39.4782757347188,-0.3514178017354239
2025-06-17T11:04:44.751587,90.0,0,TOMAS DE MONTAÑANA CAP A AV. DEL PORT,39.46293648191689,-0.3521612137442843
2025-06-17T11:04:44.751587,199.0,0,SERRERÍA HACIA BLASCO IBÁÑEZ,39.465406595904575,-0.3358936708231511
2025-06-17T11:04:44.751587,421.0,0,BLASCO IBAÑEZ A VIVERS (DES DE CLARIANO A AV. ARAGO),39.47586949839943,-0.3538972056392176
2025-06-17T11:04:44.751587,3.0,0,AV. CONSTITUCIO D'ENTRADA (DES DE CORONEL MONTESINOS),39.49324907628858,-0.3733179456917436
2025-06-17T11:04:44.751587,196.0,0,EUGENIA VIÑES (DE HISTORIADOR COLOMA A MEDITERRÁNEO),39.4689822300759,-0.3254869640570734
2025-06-17T11:04:44.751587,179.0,0,PASO INFERIOR CLARIANO,39.48169766976795,-0.3504452458967991
2025-06-17T11:04:44.751587,47.0,0,PASO INFERIOR GERMANIAS HACIA PLAZA ESPAÑA,39.46384536541438,-0.378586275873344
2025-06-17T11:04:44.751587,466.0,0,ACCES DES DE EDUARDO PRIMO YUFERA A CAMI DE LES MORERES,39.45210412975758,-0.3407400283436962
2025-06-17T11:04:44.751587,56.0,0,PERIODISTA AZZATI,39.46952242865396,-0.3777645568544135
2025-06-17T11:04:44.751587,27.0,0,MARQUES DEL TURIA CAP A GERMANIES,39.46701292935422,-0.3692154347035139
2025-06-17T11:04:44.751587,83.0,0,ARXIDUC CARLES CAP A TRES CREUS,39.462924307551,-0.3972661582815889
2025-06-17T11:04:44.751587,382.0,0,PASSEIG D'ALBEREDA (DES DE PONT EXPOSICIO A PONT DE LES FLORS),39.47264433635456,-0.3640823234098735
2025-06-17T11:04:44.751587,20.0,0,GIORGETA CAP A PERIS I VALERO,39.46000415854263,-0.3852093451557978
2025-06-17T11:04:44.751587,190.0,0,AUSIAS MARCH (DE V-31 A A. FERRANDIS),39.44187965860989,-0.3693281232927319
2025-06-17T11:04:44.751587,23.0,0,EDUARD BOSCA CAP A CARDENAL BENLLOCH,39.46556002818757,-0.3571509366493807
2025-06-17T11:04:44.751587,193.0,0,PASO INFERIOR PROFESOR LÓPEZ PIÑERO DE ENTRADA,39.45487404623732,-0.353853895633374
2025-06-17T11:04:44.751587,455.0,0,OEST (MERCAT CENTRAL),39.47102551984442,-0.3796014446856867
2025-06-17T11:04:44.751587,184.0,0,HNOS. MACHADO (DE V-21 A ALFAHUIR),39.48818230484527,-0.3534513334918205
2025-06-17T11:04:44.751587,74.0,0,MEDITERRANIA (DES DE PROGRES A E. VIÑES),39.46754845444436,-0.3278384950989337
2025-06-17T11:04:44.751587,45.0,0,MESTRE RODRIGO (DES DE GRAL. AVILES A TIRSO MOLINA),39.47984758145938,-0.3993787630241544
2025-06-17T11:04:44.751587,67.0,0,TRES CREUS (DES DE TRES FORQUES A AV. DEL CID),39.46666688786543,-0.4055811729744648
2025-06-17T11:04:44.751587,40.0,0,GUILLEM DE CASTRO,39.473552694509365,-0.3832604257732642
2025-06-17T11:04:44.751587,201.0,0,GENERAL AVILES (DE PIO XII A MESTRE RODRIGO),39.48460789214968,-0.3991087551987221
2025-06-17T11:04:44.751587,87.0,0,TOMAS DE MONTAÑANA CAP A PONT DE MONTEOLIVET,39.463009403859736,-0.3524298883120921
2025-06-17T11:04:44.751587,129.0,0,GERMANIES CAP A MARQUES DEL TURIA,39.46447610612035,-0.3745169072076328
2025-06-17T11:04:44.751587,54.0,0,FRANCIA (DE MENORCA A T. DE MONTAÑANA),39.45963468463744,-0.3484286211248869
2025-06-17T11:04:44.751587,46.0,0,MESTRE RODRIGO (DES DE TIRSO DE MOLINA A GRAL. AVILES),39.47984415696816,-0.3991210251862677
2025-06-17T11:04:44.751587,249.0,0,MAESTRO RODRIGO (DE CAMP DE TURIA A GRAL. AVILÉS),39.4875544697754,-0.4050504740711234
2025-06-17T11:04:44.751587,230.0,0,JUAN VERDEGUER (DE ING. MANUEL SOTO A MENORCA),39.45898110452792,-0.3374971954303833
2025-06-17T11:04:44.751587,132.0,0,VÍA DE SERVICIO DEL PASO INFERIOR A. FERRANDIS (DE CRA. MALILLA A A. MARCH),39.44499272977041,-0.3714292077827567
2025-06-17T11:04:44.751587,145.0,0,PASO ELEVADO HACIA PERIS Y VALERO,39.455922578944985,-0.3798342944363131
2025-06-17T11:04:44.751587,81.0,0,PINTOR SOROLLA,39.47113811109414,-0.3725394625228076
2025-06-17T11:04:44.751587,80.0,0,AUSIAS MARCH HACIA PERIS Y VALERO,39.45168464187443,-0.3719770061268647
2025-06-17T11:04:44.751587,197.0,0,PASEO DE LA ALAMEDA (DE PUENTE MONTEOLIVETE A MENORCA),39.45797330808955,-0.3507639800815976
2025-06-17T11:04:44.751587,169.0,0,NARANJOS (DE RAMON LLULL A LUIS PEIXO),39.47802109451111,-0.3394100479232136
2025-06-17T11:04:44.751587,214.0,0,JUAN XXIII HACIA HNOS. MACHADO,39.49394437936061,-0.3833630854812266
2025-06-17T11:04:44.751587,248.0,0,EUGENIA VIÑES (DE MARCOS SOPENA A MEDITERRÁNEO),39.46538510801776,-0.3247916652780374
2025-06-17T11:04:44.751587,227.0,0,MARQUÉS DEL TÚRIA HACIA PUENTE DE ARAGÓN,39.46683889481911,-0.3688257950989793
2025-06-17T11:04:44.751587,222.0,0,CORTES VALENCIANAS (DE CAMP DE TURIA A LA SAFOR),39.492435623641725,-0.4009840911786421
2025-06-17T11:04:44.751587,187.0,0,CORTES VALENCIANAS (DE CV-35 A CAMP DE TURIA),39.49676623680192,-0.4040724496780322
2025-06-17T11:04:44.751587,259.0,0,GENERAL ELIO HACIA PUENTE DEL REAL,39.47825513798841,-0.3669972753256481
2025-06-17T11:04:44.751587,78.0,0,ANGEL GUIMERÁ (DE F. CATÓLICO A P. GALDÓS),39.4696891428017,-0.3885045338890646
2025-06-17T11:04:44.751587,43.0,0,BLASCO IBAÑEZ (DE CATALUÑA A VIVEROS),39.47817857523362,-0.3609765764336744
2025-06-17T11:04:44.751587,282.0,0,CONSTITUCIÓN (DE HERMANOS MACHADO A TAVERNES BLANQUES),39.49955170913957,-0.3700778715218118
2025-06-17T11:04:44.751587,239.0,0,CAMPANAR (DE TIRSO DE MOLINA A PÍO XII),39.47928834615428,-0.393913840353462
2025-06-17T11:04:44.751587,139.0,0,PASCUAL Y GENÍS,39.46915689263018,-0.3738730771356714
2025-06-17T11:04:44.751587,260.0,0,PUENTE DEL REAL HACIA PLAZA TETUÁN,39.47640935229757,-0.3688531403494167
2025-06-17T11:04:44.751587,84.0,0,ALCALDE REIG HACIA PERIS Y VALERO,39.46094266852524,-0.3595039448369694
2025-06-17T11:04:44.751587,247.0,0,DOCTOR LLUCH HACIA NARANJOS,39.46535657269016,-0.3286279656606516
2025-06-17T11:04:44.751587,280.0,0,PASO INFERIOR PIO XII DE SALIDA,39.48590697210074,-0.3960553528942918
2025-06-17T11:04:44.751587,53.0,0,ROGER DE LAURIA,39.46914675125608,-0.3739048008217518
2025-06-17T11:04:44.751587,217.0,0,PASO INFERIOR HNOS. MACHADO HACIA JUAN XXIII,39.49807436653983,-0.3701332262175368
2025-06-17T11:04:44.751587,213.0,0,ALFAHUIR HACIA PRIMADO REIG,39.49114958329602,-0.3633408722026838
2025-06-17T11:04:44.751587,131.0,0,RUZAFA DE PLAZA DR. LANDETE A GERMANÍAS,39.46396371881648,-0.3728232379375897
2025-06-17T11:04:44.751587,360.0,0,SAGUNTO (DE RUAYA A CONSTITUCIÓN),39.488601993338925,-0.3747894446638248
2025-06-17T11:04:44.751587,362.0,0,EDUARDO PRIMO YÚFERA HACIA NAZARET,39.451898340390336,-0.3466988978657531
2025-06-17T11:04:44.751587,364.0,0,REINO DE VALENCIA (DE GERMANÍAS A PERIS Y VALERO),39.46271062362656,-0.3635732629472894
2025-06-17T11:04:44.751587,344.0,0,PÉREZ GALDÓS HACIA PUENTE CAMPANAR,39.46365697758,-0.3875757865768054
2025-06-17T11:04:44.751587,338.0,0,CORTES VALENCIANAS (DE CAMP DE TURIA A CV-35),39.49692515677082,-0.4039253105757624
2025-06-17T11:04:44.751587,355.0,0,AV. DEL CID (DE NUEVE DE OCTUBRE A A-3),39.4697314756599,-0.4122632061041307
2025-06-17T11:04:44.751587,364.0,0,REINO DE VALENCIA (DE GERMANÍAS A PERIS Y VALERO),39.46387445702416,-0.3689917101287021
2025-06-17T11:04:44.751587,307.0,0,PASO INFERIOR PÍO XII DE ENTRADA,39.48580138312249,-0.396231191581797
2025-06-17T11:04:44.751587,305.0,0,PUENTE ASTILLEROS HACIA ING. MANUEL SOTO,39.45324749798648,-0.331553321668773
2025-06-17T11:04:44.751587,352.0,0,PESET ALEIXANDRE (DE JUAN XXIII A PRIMADO REIG),39.49076205877712,-0.379595824966712
2025-06-17T11:04:44.751587,293.0,0,PUENTE DE LA EXPOSICIÓN HACIA ALAMEDA,39.473138722444816,-0.3658937621029786
2025-06-17T11:04:44.751587,339.0,0,A-3 SENTIDO SALIDA,39.4694214563251,-0.4182708140051018
2025-06-17T11:04:44.751587,303.0,1,PUENTE MONTEOLIVETE HACIA TOMÁS DE MONTAÑANA,39.45793834004967,-0.3543789195569941
2025-06-17T11:04:44.751587,287.0,0,PUENTE DE LAS ARTES HACIA MENÉNDEZ PIDAL,39.481099101733214,-0.3834471488392138
2025-06-17T11:04:44.751587,267.0,0,MARCOS SOPENA (DE EUGENIA VIÑES A PLAZA ARMADA ESPAÑOLA),39.46321287423368,-0.3269941170291252
2025-06-17T11:04:44.751587,372.0,0,CAMP DE TURIA (DE M. RODRIGO A CORTES VALENCIANAS),39.49320232432847,-0.4053204644681352
2025-06-17T11:04:44.751587,374.0,0,LA SAFOR (DE CORTES VALENCIANAS A M. RODRIGO),39.48915379266813,-0.4023892882222454
2025-06-17T11:04:44.751587,345.0,0,NUEVE DE OCTUBRE HACIA PÍO BAROJA,39.47153380924273,-0.4052031513721389
2025-06-17T11:04:44.751587,288.0,0,PUENTE DEL REAL HACIA VIVEROS,39.47629668387465,-0.3687494899198133
2025-06-17T11:04:44.751587,344.0,0,PÉREZ GALDÓS HACIA PUENTE CAMPANAR,39.47316027804814,-0.3943410904507086
2025-06-17T11:04:44.751587,292.0,0,VALLE DE LA BALLESTERA (DE MTRO. RODRIGO A PÍO XII),39.48000689709962,-0.3958586768165234
2025-06-17T11:04:44.751587,385.0,0,VÍA DE SERVICIO PASO INFERIOR DE GRAL. AVILÉS A PESET ALEIXANDRE,39.48915699494085,-0.3863626246925892
2025-06-17T11:04:44.751587,368.0,0,FRANCIA (DE PUENTE DEL REINO A TOMÁS DE MONTAÑANA),39.46051160160744,-0.3555657521183961
2025-06-17T11:04:44.751587,381.0,0,GENERAL AVILÉS (DE M. RODRIGO A PÍO BAROJA),39.48231832701224,-0.4043683304524538
2025-06-17T11:04:44.751587,266.0,0,MARCOS SOPENA (DE PLAZA ARMADA ESPAÑOLA A EUGENIA VIÑES),39.46304369782034,-0.3269736975961338
2025-06-17T11:04:44.751587,309.0,0,PASO INFERIOR PEREZ GALDOS HACIA GIORGETA,39.4679787584152,-0.3908519237053131
2025-06-17T11:04:44.751587,274.0,0,PUENTE DEL ASSUT DE L'OR HACIA MENORCA,39.45469761327399,-0.3495825540040758
2025-06-17T11:04:44.751587,296.0,0,PUENTE DE CAMPANAR HACIA PÉREZ GALDÓS,39.47572807415988,-0.3964437445049349
2025-06-17T11:04:44.751587,277.0,0,PASO INFERIOR CATALUÑA DE SALIDA,39.480996222672026,-0.3518736145349449
2025-06-17T11:04:44.751587,290.0,0,PUENTE REINO DE VALENCIA HACIA FRANCIA,39.46170929899682,-0.3589584618886647
2025-06-17T11:04:44.751587,331.0,0,PASEO DE LA ALAMEDA (DE LLANO DEL REAL A PUENTE DE LA EXPOSICION),39.4751021462844,-0.3660445328061775
2025-06-17T11:04:44.751587,330.0,0,PASEO DE LA ALAMEDA (DE PUENTE DE LA EXPOSICION A LLANO DEL REAL),39.47520516414651,-0.3658496932467651
2025-06-17T11:04:44.751587,334.0,0,JOAQUÍN BALLESTER HACIA PADRE FERRIS,39.48304500388587,-0.3893257443426723
2025-06-17T11:04:44.751587,297.0,0,PUENTE DE CAMPANAR HACIA MTRO RODRIGO,39.475796056763166,-0.3962938578878808
2025-06-17T11:04:44.751587,332.0,0,PASEO DE LA ALAMEDA (DE PUENTE DE LA EXPOSICION A ZARAGOZA),39.47043182723874,-0.3622935918953706
2025-06-17T11:04:44.751587,317.0,0,PASO INFERIOR TIRSO DE MOLINA - MANUEL DE FALLA,39.47660979036577,-0.3966376431551479
2025-06-17T11:04:44.751587,276.0,0,PASO INFERIOR CATALUÑA DE ENTRADA,39.48106834028241,-0.3520383004423561
2025-06-17T11:04:44.751587,278.0,0,PIO XII (DE CAMPANAR A TIRSO DE MOLINA),39.480021747178974,-0.3920709048556676
2025-06-17T11:04:44.751587,337.0,0,OEST (SANT AGUSTI),39.47102502955703,-0.3797662852296538
2025-06-17T11:04:44.751587,377.0,0,TRES CRUCES (DE TRES FORQUES A ARCHIDUQUE CARLOS),39.460809737869,-0.4043707349120037
2025-06-17T11:04:44.751587,,0,,,
2025-06-17T11:04:44.751587,394.0,0,AV. DEL CID (DE A-3 A NUEVE DE OCTUBRE),39.46952237588906,-0.4121275303068494
2025-06-17T11:04:44.751587,434.0,0,CAMP DEL TURIA (DE CORTES VALENCIANAS A NICASIO BENLLOCH),39.49511784939858,-0.4009174816550205
2025-06-17T11:04:44.751587,253.0,0,ANTONIO FERRANDIS HACIA AUSIAS MARCH,39.45064139274389,-0.3585718451850702
2025-06-17T11:04:44.751587,435.0,0,CAMP DEL TURIA (DE NICASIO BENLLOCH A CORTES VALENCIANAS),39.4953845576506,-0.4011085098233489
2025-06-17T11:04:44.751587,415.0,0,VÍA DE SERVICIO DE HNOS. MACHADO HACIA ALFAHUIR,39.49786997709089,-0.3702672254981869
2025-06-17T11:04:44.751587,69.0,0,SAN JOSE DE CALASANZ - PINTOR BENEDITO,39.4662319389413,-0.3857343272367827
2025-06-17T11:04:44.751587,408.0,0,CARTEROS HACIA TOMAS SALA,39.45036061867714,-0.3891899863018349
2025-06-17T11:04:44.751587,433.0,0,VÍA DE SERVICIO DE GENERAL AVILÉS A NICASIO BENLLOCH,39.48759563881619,-0.3915459481249286
2025-06-17T11:04:44.751587,424.0,0,BLASCO IBAÑEZ (DE M.CANDELA A SERRERÍA),39.47172603922722,-0.3413667880726616
2025-06-17T11:04:44.751587,414.0,0,VÍA DE SERVICIO DE HNOS. MACHADO HACIA CNO. MONCADA,39.4981878678564,-0.3700769218897111
2025-06-17T11:04:44.751587,208.0,0,MANUEL DE FALLA,39.47520469558,-0.4026120831264714
2025-06-17T11:04:44.751587,448.0,0,PL. SAN AGUSTÍN,39.46858856663464,-0.3794510081519771
2025-06-17T11:04:44.751587,407.0,0,TOMAS SALA (DE SAN VICENTE A CARTEROS),39.44689519592839,-0.3879872696532171
2025-06-17T11:04:44.751587,388.0,0,VÍA DE SERVICIO PASO INFERIOR DE PESET ALEIXANDRE A PRIMADO REIG,39.49125431805799,-0.3741713818120482
2025-06-17T11:04:44.751587,416.0,0,CONSTITUCIÓN (DE TAVERNES BLANQUES A HNOS.MACHADO),39.49959023338232,-0.3701927313923045
2025-06-17T11:04:44.751587,373.0,0,LA SAFOR (DE M. RODRIGO A CORTES VALENCIANAS),39.48887829368749,-0.4021774965308397
2025-06-17T11:04:44.751587,402.0,0,EMILIO BARÓ,39.48821298401028,-0.3606524969398358
2025-06-17T11:04:44.751587,100.0,3,ALICANTE (DE XÀTIVA A GERMANÍAS),39.465307009307175,-0.3772542485482671
2025-06-17T11:04:44.751587,391.0,0,AV. DEL CID (DE LINARES A NUEVE DE OCTUBRE),39.46882836206088,-0.3994732742292723
2025-06-17T11:04:44.751587,326.0,0,JOAQUIN BALLESTER HACIA PÍO XII,39.48335783575127,-0.3889633146900485
2025-06-17T11:04:44.751587,445.0,0,AV. MENÉNDEZ PIDAL (DE PUENTE DE ADEMUZ A PUENTE DE LAS ARTES),39.480072968485736,-0.3874661255916911
2025-06-17T11:04:44.751587,255.0,0,AV. DEL LEVANTE (DE ECUADOR A JUAN XXIII),39.49577512415503,-0.3887909741902337
2025-06-17T11:04:44.751587,426.0,0,CAMPANAR (DE PESET ALEIXANDRE A PÍO XII),39.48493959965028,-0.3913579628115289
2025-06-17T11:04:44.751587,392.0,0,PASO INFERIOR AV. DEL CID HACIA A-3,39.46982719869189,-0.4059249183556874
2025-06-17T11:04:44.751587,99.0,0,JACINTO BENAVENTE HACIA ALCALDE REIG,39.466023957749336,-0.3625893962577639
2025-06-17T11:04:44.751587,328.0,0,INGENIERO FAUSTO ELIO HACIA NARANJOS,39.48049733595654,-0.332649250561997
2025-06-17T11:04:44.751587,37.0,0,RAMÓN Y CAJAL HACIA FDO. EL CATÓLICO,39.46769089975571,-0.3828984190279645
